City_ID,City,Lat,Lng,Max Temp,Humidity,Cloudiness,Wind Speed,Country,Date
0,mataura,-46.1927,168.8643,17.94,48,88,2.73,NZ,1673049226
1,barrow,71.2906,-156.7887,-19.99,77,100,9.77,US,1673049227
2,hermanus,-34.4187,19.2345,13.78,75,0,4.88,ZA,1673048997
3,mount gambier,-37.8333,140.7667,27.95,24,0,3.42,AU,1673049054
4,klaksvik,62.2266,-6.589,-0.49,62,90,2.97,FO,1673049227
5,puerto ayora,-0.7393,-90.3518,23.64,94,38,1.34,EC,1673049228
6,totness,5.8833,-56.3167,25.14,87,100,5.5,SR,1673049228
7,pevek,69.7008,170.3133,-33.07,98,99,0.55,RU,1673049229
8,ostrovnoy,68.0531,39.5131,-15.94,93,91,1.42,RU,1673049229
9,rikitea,-23.1203,-134.9692,25.97,73,5,5.19,PF,1673049230
10,albany,42.6001,-73.9662,4.01,84,92,3.13,US,1673049231
11,nishihara,26.1842,127.7558,17.6,55,20,9.26,JP,1673049231
12,ushuaia,-54.8,-68.3,13.81,47,20,3.6,AR,1673049232
13,geraldton,-28.7667,114.6,19.23,68,0,8.75,AU,1673049232
14,jamestown,42.097,-79.2353,0.86,72,100,2.68,US,1673049131
15,busselton,-33.65,115.3333,17.27,61,63,4.8,AU,1673049233
16,codrington,-38.2667,141.9667,25.96,32,9,2.52,AU,1673049234
17,nikolskoye,59.7035,30.7861,-8.06,99,87,1.32,RU,1673049234
18,bengkulu,-3.8004,102.2655,23.41,88,89,1.62,ID,1673049235
19,abatskoye,56.2875,70.4555,-11.81,94,100,4.75,RU,1673049235
20,cayenne,4.9333,-52.3333,23.02,94,75,2.06,GF,1673049236
21,punta arenas,-53.15,-70.9167,17.06,31,0,2.57,CL,1673049236
22,hun,29.1268,15.9477,11.28,50,3,1.47,LY,1673049033
23,mar del plata,-38.0023,-57.5575,25.46,78,0,7.15,AR,1673049237
24,petropavlovsk-kamchatskiy,53.0452,158.6483,-20.67,77,0,4.0,RU,1673049189
25,mayor pablo lagerenza,-19.9309,-60.7718,26.14,34,27,1.1,PY,1673049237
26,muhos,64.808,25.9931,-22.12,99,74,1.87,FI,1673049238
27,popondetta,-8.7537,148.2534,26.92,83,100,0.37,PG,1673049238
28,san policarpo,12.1791,125.5072,26.93,76,100,7.15,PH,1673049239
29,clyde river,70.4692,-68.5914,-32.87,75,0,2.06,CA,1673049239
30,hobart,-42.8794,147.3294,19.59,64,75,3.6,AU,1673048493
31,faya,18.3851,42.4509,11.29,82,6,1.61,SA,1673049240
32,cape town,-33.9258,18.4232,19.65,73,0,8.23,ZA,1673049031
33,khatanga,71.9667,102.5,-44.81,99,94,0.6,RU,1673049241
34,whitehorse,60.7161,-135.0538,-10.5,89,100,2.06,CA,1673049241
35,paita,-5.0892,-81.1144,20.33,82,85,7.56,PE,1673049189
36,byron bay,-28.65,153.6167,25.95,63,57,6.29,AU,1673049242
37,nokaneng,-19.6667,22.2667,21.13,79,100,1.51,BW,1673049242
38,beyneu,45.3167,55.2,2.2,89,100,4.86,KZ,1673049243
39,chokurdakh,70.6333,147.9167,-37.55,98,100,0.78,RU,1673049243
40,shingu,33.7333,135.9833,7.75,61,28,1.6,JP,1673049244
41,carman,49.4992,-98.0016,-15.62,85,32,1.54,CA,1673049244
42,luba,3.4568,8.5547,24.94,77,35,2.66,GQ,1673049245
43,chapais,49.7834,-74.8492,-7.12,95,100,3.0,CA,1673049246
44,bluff,-46.6,168.3333,13.93,62,53,8.66,NZ,1673049246
45,broome,42.2506,-75.833,2.7,89,97,0.89,US,1673049247
46,charters towers,-20.1,146.2667,27.66,56,38,1.49,AU,1673049247
47,channel-port aux basques,47.5702,-59.1367,-2.07,70,93,4.58,CA,1673049248
48,saint-francois,46.4154,3.9054,8.69,93,100,1.54,FR,1673049248
49,atuona,-9.8,-139.0333,25.77,74,0,5.63,PF,1673049248
50,matara,5.9485,80.5353,22.88,91,46,2.09,LK,1673049004
51,sambava,-14.2667,50.1667,23.54,90,49,3.09,MG,1673049249
52,cidreira,-30.1811,-50.2056,22.17,72,0,7.22,BR,1673049250
53,port hardy,50.6996,-127.4199,8.1,87,100,14.92,CA,1673049250
54,saskylakh,71.9167,114.0833,-45.68,100,75,2.11,RU,1673049250
55,broken hill,-31.95,141.4333,26.6,32,0,6.15,AU,1673049079
56,atambua,-9.1061,124.8925,25.15,83,99,3.64,ID,1673049231
57,college,64.8569,-147.8028,-15.23,84,100,0.0,US,1673049252
58,castanos,26.7833,-101.4167,23.77,36,0,2.57,MX,1673049252
59,castro,-24.7911,-50.0119,13.5,88,48,3.26,BR,1673049253
60,bredasdorp,-34.5322,20.0403,16.8,76,7,2.33,ZA,1673049148
61,bintulu,3.1667,113.0333,25.23,100,40,1.03,MY,1673048956
62,herzogenbuchsee,47.188,7.7062,7.49,98,100,1.0,CH,1673049254
63,saint-philippe,-21.3585,55.7679,24.77,83,100,4.98,RE,1673049254
64,muros,42.7762,-9.0603,13.94,86,99,12.66,ES,1673049255
65,djambala,-2.5447,14.7533,19.32,92,91,0.29,CG,1673049256
66,mizdah,31.4451,12.9801,8.03,63,13,1.34,LY,1673049257
67,strezhevoy,60.7333,77.5889,-30.18,100,84,2.26,RU,1673049257
68,ruteng,-8.6136,120.4721,20.66,74,89,1.51,ID,1673049210
69,avarua,-21.2078,-159.775,26.03,78,100,2.06,CK,1673049258
70,muskogee,35.5834,-95.3336,14.04,76,80,4.16,US,1673049259
71,buraydah,26.326,43.975,8.25,55,0,2.0,SA,1673049260
72,narsaq,60.9167,-46.05,-13.54,59,66,3.79,GL,1673049261
73,ketchikan,55.3422,-131.6461,7.99,98,100,2.71,US,1673049261
74,port alfred,-33.5906,26.891,14.54,87,15,3.15,ZA,1673049262
75,pisco,-13.7,-76.2167,22.03,83,0,5.14,PE,1673049263
76,port augusta,-32.5,137.7667,32.07,17,0,3.83,AU,1673049123
77,flinders,-34.5833,150.8552,20.59,79,77,3.13,AU,1673049263
78,tiksi,71.6872,128.8694,-33.96,100,99,2.43,RU,1673049264
79,villazon,-22.0866,-65.5942,9.43,61,84,5.0,BO,1673049081
80,walvis bay,-22.9575,14.5053,16.16,88,1,4.12,NA,1673049265
81,cherskiy,68.75,161.3,-41.98,98,100,1.23,RU,1673049266
82,severo-kurilsk,50.6789,156.125,-4.7,75,82,6.07,RU,1673049267
83,lagoa,39.05,-27.9833,14.83,77,93,5.13,PT,1673049267
84,esperance,-33.8667,121.9,17.23,66,100,6.74,AU,1673049267
85,qaanaaq,77.484,-69.3632,-24.1,99,100,0.78,GL,1673049268
86,jiangkou,25.4872,119.1986,12.92,77,25,3.48,CN,1673049065
87,prince george,53.9166,-122.753,4.69,70,75,4.63,CA,1673049125
88,kodiak,57.79,-152.4072,-0.8,71,27,1.48,US,1673049269
89,thompson,55.7435,-97.8558,-13.91,92,100,4.63,CA,1673049270
90,northam,51.0333,-4.2167,12.01,96,100,12.48,GB,1673049270
91,kerouane,9.2667,-9.0167,22.4,27,5,0.53,GN,1673049270
92,srednekolymsk,67.45,153.6833,-47.38,100,89,0.35,RU,1673049271
93,mandalgovi,45.7625,106.2708,-11.03,61,76,2.89,MN,1673049271
94,brae,60.3964,-1.353,6.17,76,97,5.06,GB,1673049272
95,nouadhibou,20.931,-17.0347,19.99,49,0,7.72,MR,1673049272
96,yellowknife,62.456,-114.3525,-10.71,85,100,2.57,CA,1673049172
97,pangnirtung,66.1451,-65.7125,-24.0,77,20,1.54,CA,1673049273
98,chipata,-13.6333,32.65,18.47,94,100,1.03,ZM,1673049199
99,kruisfontein,-34.0033,24.7314,12.71,73,2,2.01,ZA,1673049274
100,leander,30.5788,-97.8531,23.57,58,0,4.12,US,1673049274
101,ambon,-3.6954,128.1814,29.08,74,40,2.57,ID,1673049074
102,iida,35.5197,137.8207,1.13,95,13,1.34,JP,1673049276
103,leningradskiy,69.3833,178.4167,-24.15,97,100,3.99,RU,1673049277
104,kieta,-6.2167,155.6333,29.39,71,91,3.64,PG,1673049278
105,sulangan,11.1373,123.7228,26.5,77,98,6.58,PH,1673049278
106,nara,34.6851,135.8049,5.83,69,77,0.71,JP,1673049279
107,abonnema,4.7084,6.7931,25.71,80,82,1.99,NG,1673049279
108,grand gaube,-20.0064,57.6608,25.77,72,17,2.68,MU,1673049280
109,bathsheba,13.2167,-59.5167,25.34,83,20,8.23,BB,1673049281
110,sao jose da coroa grande,-8.8978,-35.1478,25.82,79,5,5.0,BR,1673049281
111,sitka,57.0531,-135.33,3.0,91,100,2.77,US,1673049282
112,hilo,19.7297,-155.09,31.82,84,24,0.89,US,1673049282
113,xinzhi,36.4989,111.7047,3.66,27,0,0.65,CN,1673049069
114,ilhabela,-23.7781,-45.3581,19.92,89,100,0.72,BR,1673049135
115,grindavik,63.8424,-22.4338,-1.03,74,75,4.63,IS,1673048984
116,san cristobal,7.7669,-72.225,22.1,85,10,0.5,VE,1673049283
117,bethel,41.3712,-73.414,5.93,88,90,1.44,US,1673049284
118,cabo san lucas,22.8909,-109.9124,25.34,70,0,0.45,MX,1673049285
119,gat,31.61,34.7642,15.22,100,27,2.98,IL,1673049285
120,kapaa,22.0752,-159.319,26.17,74,0,1.79,US,1673049286
121,hithadhoo,-0.6,73.0833,27.25,73,13,4.59,MV,1673049287
122,georgetown,5.4112,100.3354,25.96,86,20,3.6,MY,1673049287
123,faanui,-16.4833,-151.75,27.26,73,97,3.88,PF,1673049288
124,tenenkou,14.4572,-4.9169,23.1,22,30,4.16,ML,1673049288
125,vaini,-21.2,-175.2,29.09,84,40,6.17,TO,1673049288
126,fortuna,40.5982,-124.1573,12.59,91,100,8.75,US,1673049289
127,sao joao da barra,-21.6403,-41.0511,23.05,94,100,6.51,BR,1673049289
128,jasper,37.2001,-94.3502,10.95,40,100,3.69,US,1673049290
129,matadi,-5.8167,13.45,23.98,97,100,0.65,CD,1673049290
130,ribeira grande,38.5167,-28.7,14.87,86,99,0.89,PT,1673049255
131,lasa,46.6166,10.7002,3.83,43,73,0.94,IT,1673049292
132,tuatapere,-46.1333,167.6833,14.98,67,99,2.93,NZ,1673049292
133,vostok,46.4856,135.8833,-20.0,90,24,0.74,RU,1673049293
134,maralal,1.0968,36.698,13.51,66,8,1.58,KE,1673049294
135,batagay-alyta,67.8006,130.4114,-42.99,96,35,2.07,RU,1673049295
136,nyurba,63.2842,118.3319,-30.75,98,100,2.5,RU,1673049295
137,arraial do cabo,-22.9661,-42.0278,21.19,87,100,6.87,BR,1673049026
138,tarakan,3.3,117.6333,23.72,100,75,2.57,ID,1673049045
139,deputatskiy,69.3,139.9,-37.81,99,99,1.09,RU,1673049296
140,pekan,3.4836,103.3996,24.06,90,100,3.14,MY,1673049297
141,toamasina,-18.1667,49.3833,24.0,88,40,2.06,MG,1673049258
142,taoudenni,22.6783,-3.9836,17.08,23,64,5.22,ML,1673049298
143,noumea,-22.2763,166.4572,32.99,99,76,3.78,NC,1673049205
144,boguchany,58.3814,97.4531,-11.2,95,100,3.29,RU,1673049299
145,torbay,47.6666,-52.7314,-2.46,85,75,3.09,CA,1673049300
146,kavaratti,10.5669,72.642,27.06,65,1,3.46,IN,1673049300
147,karratha,-20.7377,116.8463,28.39,56,19,8.74,AU,1673049290
148,bud,39.447,-86.1758,2.68,79,78,2.51,US,1673049301
149,moron,-34.6534,-58.6198,28.92,65,11,6.34,AR,1673049302
150,togul,53.465,85.9128,-13.73,97,99,1.04,RU,1673049303
151,gamboma,-1.8764,15.8644,22.89,83,99,1.39,CG,1673049079
152,viedma,-40.8135,-62.9967,31.91,22,47,8.69,AR,1673049063
153,zhangye,38.9342,100.4517,-1.46,19,1,2.11,CN,1673049304
154,killybegs,54.6333,-8.45,7.5,75,100,7.91,IE,1673049304
155,solnechnyy,50.7214,136.6319,-22.78,97,57,1.39,RU,1673049304
156,rundu,-17.9333,19.7667,21.62,72,100,1.65,NA,1673049305
157,lata,40.1629,-8.3327,12.26,87,91,2.21,PT,1673049305
158,kaseda,31.4167,130.3167,12.84,54,90,12.23,JP,1673049306
159,tasiilaq,65.6145,-37.6368,-7.46,64,95,3.64,GL,1673049306
160,hohhot,40.8106,111.6522,-10.84,67,0,1.0,CN,1673049307
161,thinadhoo,0.5333,72.9333,27.18,76,2,4.82,MV,1673049307
162,kutum,14.2,24.6667,11.21,37,31,3.16,SD,1673049309
163,ambilobe,-13.2,49.05,22.48,91,27,1.55,MG,1673049309
164,mayo,38.8876,-76.5119,8.06,58,100,6.69,US,1673049310
165,airai,-8.9266,125.4092,19.63,76,96,1.64,TL,1673049310
166,poplar bluff,36.757,-90.3929,8.52,58,62,2.55,US,1673049311
167,muzhi,65.3667,64.6667,-29.72,98,100,4.17,RU,1673049311
168,zavyalovo,54.5053,82.4484,-12.28,95,95,1.7,RU,1673049312
169,port blair,11.6667,92.75,27.02,74,40,2.57,IN,1673049312
170,nantucket,41.2835,-70.0995,6.03,96,100,5.39,US,1673049312
171,udachnyy,66.4167,112.4,-36.42,66,100,1.17,RU,1673049313
172,vichy,46.25,3.5833,8.5,94,58,1.33,FR,1673049313
173,bambous virieux,-20.3428,57.7575,25.68,83,40,1.54,MU,1673049314
174,shitanjing,39.2342,106.3439,-1.76,27,11,0.8,CN,1673049270
175,new norfolk,-42.7826,147.0587,18.84,43,8,1.81,AU,1673049314
176,makat,47.6469,53.3463,2.99,93,100,5.47,KZ,1673049315
177,hailey,43.5196,-114.3153,0.5,72,98,2.24,US,1673049316
178,katsina,12.9894,7.6006,17.73,22,60,4.63,NG,1673049148
179,manduria,40.4018,17.6335,12.77,89,0,3.38,IT,1673049316
180,orchard homes,46.8633,-114.0484,3.11,82,71,0.45,US,1673049317
181,portland,45.5234,-122.6762,12.01,71,100,7.2,US,1673049039
182,price,39.5994,-110.8107,0.59,86,40,1.54,US,1673049317
183,rondonopolis,-16.4708,-54.6356,22.53,94,100,1.08,BR,1673049318
184,guerrero negro,27.9769,-114.0611,17.74,64,0,5.07,MX,1673049319
185,sainte-marie,-20.8968,55.5496,25.79,73,100,6.17,RE,1673049319
186,saldanha,-33.0117,17.9442,17.03,80,0,7.61,ZA,1673049319
187,san patricio,28.017,-97.5169,24.05,74,0,7.11,US,1673049320
188,avera,33.194,-82.5271,10.73,61,46,2.92,US,1673049321
189,port elizabeth,-33.918,25.5701,15.73,87,0,1.54,ZA,1673049321
190,acarau,-2.8856,-40.12,26.67,79,100,6.91,BR,1673049322
191,nicoya,10.1483,-85.452,24.9,71,22,2.91,CR,1673049323
192,provideniya,64.3833,-173.3,-14.44,93,99,3.02,RU,1673049323
193,sao filipe,14.8961,-24.4956,22.94,66,92,5.26,CV,1673049255
194,tuktoyaktuk,69.4541,-133.0374,-21.0,77,100,4.12,CA,1673049325
195,lompoc,34.6391,-120.4579,17.61,74,4,2.24,US,1673049325
196,chuy,-33.6971,-53.4616,20.34,79,5,5.09,UY,1673049229
197,rio gallegos,-51.6226,-69.2181,15.03,47,75,5.66,AR,1673049326
198,bhadasar,28.2833,74.3167,8.54,19,20,3.01,IN,1673049326
199,vagur,61.4732,-6.8119,4.85,62,96,5.32,FO,1673049327
200,ossora,59.2353,163.0719,-22.95,85,92,2.56,RU,1673049327
201,vardo,70.3705,31.1107,-0.01,51,75,8.23,NO,1673049328
202,lebu,-37.6167,-73.65,15.54,85,35,1.0,CL,1673049156
203,aklavik,68.2191,-135.0107,-18.0,85,100,1.54,CA,1673049328
204,bilma,18.6853,12.9164,16.27,31,5,2.72,NE,1673049329
205,bend,44.0582,-121.3153,6.92,66,0,3.09,US,1673049106
206,orlik,52.5178,99.825,-11.37,95,99,1.48,RU,1673049329
207,hasaki,35.7333,140.8333,4.56,86,100,4.68,JP,1673049330
208,moree,-29.4667,149.85,26.45,36,1,3.04,AU,1673049293
209,linxia,35.6003,103.2064,-2.14,17,0,2.38,CN,1673049075
210,sechura,-5.5569,-80.8222,22.49,65,93,7.4,PE,1673049331
211,zyryanka,65.75,150.85,-46.45,100,98,1.5,RU,1673049332
212,ancud,-41.8697,-73.8203,15.03,92,85,2.71,CL,1673049333
213,dauriya,49.9333,116.8667,-29.54,98,8,0.87,RU,1673049333
214,itoman,26.1247,127.6694,18.01,55,20,9.26,JP,1673049333
215,vila,42.0304,-8.1588,7.06,85,99,3.94,PT,1673049334
216,butaritari,3.0707,172.7902,27.13,76,43,6.0,KI,1673049334
217,yagodnoye,62.55,149.6667,-36.53,96,100,0.89,RU,1673049335
218,luanda,-8.8368,13.2343,26.0,89,75,4.12,AO,1673049335
219,mahebourg,-20.4081,57.7,25.7,83,40,1.54,MU,1673049336
220,ponta do sol,32.6667,-17.1,18.34,71,27,2.04,PT,1673049336
221,jurm,36.8648,70.8342,1.99,56,90,3.61,AF,1673049337
222,pasni,25.2631,63.471,19.75,57,81,2.05,PK,1673049337
223,boca do acre,-8.7522,-67.3978,22.16,96,96,1.1,BR,1673049338
224,ahipara,-35.1667,173.1667,21.49,77,100,1.75,NZ,1673049338
225,east london,-33.0153,27.9116,16.18,72,82,3.05,ZA,1673049338
226,lakes entrance,-37.8811,147.981,20.09,58,2,5.55,AU,1673049339
227,conde,-7.2597,-34.9075,26.7,74,20,3.09,BR,1673049340
228,alofi,-19.0595,-169.9187,25.94,94,100,4.12,NU,1673049340
229,hope,33.6671,-93.5916,11.11,83,26,2.76,US,1673049341
230,buala,-8.145,159.5921,28.25,77,99,3.26,SB,1673049341
231,touros,-5.1989,-35.4608,26.13,72,19,5.32,BR,1673049342
232,svetlyy,54.675,20.1347,-4.97,92,100,6.5,RU,1673049342
233,hlobyne,49.3878,33.2596,-6.37,55,59,4.02,UA,1673049343
234,parintins,-2.6283,-56.7358,23.79,92,100,1.77,BR,1673049343
235,norman wells,65.282,-126.8329,-19.98,84,75,2.06,CA,1673049344
236,kaitangata,-46.2817,169.8464,14.4,58,82,4.17,NZ,1673049344
237,jumla,29.2747,82.1838,1.39,14,21,2.5,NP,1673049346
238,biak,-0.9131,122.8766,26.36,76,100,0.65,ID,1673049346
239,te anau,-45.4167,167.7167,15.29,70,96,1.64,NZ,1673049346
240,medicine hat,50.0501,-110.6683,2.62,74,75,6.69,CA,1673049347
241,san quintin,30.4833,-115.95,16.13,63,100,5.36,MX,1673049347
242,hornepayne,49.2138,-84.7705,-12.29,97,100,2.57,CA,1673049348
243,rocha,-34.4833,-54.3333,19.4,81,3,5.01,UY,1673049049
244,green river,41.5286,-109.4662,-0.45,8,100,0.89,US,1673049348
245,matagami,49.7502,-77.6328,-10.94,85,100,2.57,CA,1673049349
246,tezpur,26.6333,92.8,11.35,63,0,1.58,IN,1673049349
247,plettenberg bay,-34.0527,23.3716,15.71,72,3,1.41,ZA,1673049167
248,hirara,24.8,125.2833,17.92,72,75,11.32,JP,1673049350
249,karpathos,35.507,27.2132,11.98,82,20,4.12,GR,1673049351
250,dunedin,-45.8742,170.5036,15.45,95,92,3.02,NZ,1673049351
251,beira,-19.8436,34.8389,27.05,88,75,1.41,MZ,1673049351
252,vigrestad,58.5667,5.7,7.82,90,73,4.85,NO,1673049352
253,novobirilyussy,56.9514,90.6661,-19.0,95,87,3.88,RU,1673049352
254,hede,33.7681,120.2517,4.29,32,0,0.76,CN,1673049353
255,eureka,40.8021,-124.1637,13.34,84,100,4.47,US,1673049179
256,raudeberg,61.9875,5.1352,6.04,1,100,11.35,NO,1673049354
257,roald,62.5833,6.1333,5.08,87,100,8.75,NO,1673049354
258,saint-joseph,-21.3667,55.6167,24.21,81,100,4.73,RE,1673049141
259,vila velha,-20.3297,-40.2925,23.97,93,100,7.15,BR,1673049355
260,iracoubo,5.4802,-53.2011,24.42,91,93,5.17,GF,1673049355
261,ano mera,37.45,25.4,13.6,71,0,6.0,GR,1673049356
262,jauja,-11.7758,-75.4966,9.76,84,100,1.86,PE,1673049356
263,nizhnevartovsk,60.9344,76.5531,-31.66,75,0,0.0,RU,1673049356
264,clonakilty,51.6231,-8.8706,7.56,79,100,7.44,IE,1673049357
265,komsomolskiy,40.4272,71.7189,-0.6,93,81,2.06,UZ,1673049357
266,beringovskiy,63.05,179.3167,-20.47,96,75,3.91,RU,1673049358
267,kavieng,-2.5744,150.7967,29.17,67,85,1.62,PG,1673049358
268,la orilla,17.9833,-102.2333,27.17,66,0,3.88,MX,1673049164
269,san vicente,-26.6167,-54.1333,19.12,44,0,0.78,AR,1673049359
270,narrabri,-30.3167,149.7833,25.85,54,0,2.68,AU,1673049360
271,nemuro,43.3236,145.575,-2.14,64,8,4.0,JP,1673049361
272,baykit,61.67,96.37,-18.88,100,100,0.58,RU,1673049362
273,inverness,57.4791,-4.224,6.95,82,75,1.54,GB,1673049362
274,cabo rojo,18.0866,-67.1457,25.93,84,23,4.03,PR,1673049363
275,gornyy,55.1153,83.9059,-18.98,99,98,1.83,RU,1673049364
276,saint-leu,-21.15,55.2833,25.18,77,100,1.04,RE,1673049364
277,yerbogachen,61.2767,108.0108,-22.77,99,100,0.7,RU,1673049365
278,nsoko,-27.0333,31.95,18.59,92,100,3.8,SZ,1673049365
279,rokupr,8.6717,-12.395,20.83,90,0,0.41,SL,1673049366
280,brownsville,25.9018,-97.4975,25.05,82,0,7.31,US,1673049366
281,springbok,-29.6643,17.8865,17.95,39,0,5.01,ZA,1673049216
282,halifax,44.6453,-63.5724,0.68,95,100,5.81,CA,1673049367
283,statesboro,32.4488,-81.7832,11.93,71,0,0.0,US,1673049368
284,maryville,35.7565,-83.9705,7.83,66,36,2.68,US,1673049368
285,abu zabad,12.35,29.25,15.2,30,45,5.65,SD,1673049262
286,upernavik,72.7868,-56.1549,-26.59,83,4,4.68,GL,1673049369
287,bereda,43.2686,-7.5406,10.79,74,57,5.04,ES,1673049369
288,vila franca do campo,37.7167,-25.4333,15.23,93,98,2.95,PT,1673049369
289,half moon bay,37.4636,-122.4286,16.57,72,20,4.63,US,1673049370
290,dikson,73.5069,80.5464,-36.83,100,52,1.06,RU,1673049370
291,caravelas,-17.7125,-39.2481,25.36,87,98,3.83,BR,1673049371
292,abha,18.2164,42.5053,11.14,87,20,3.6,SA,1673049371
293,salalah,17.0151,54.0924,22.36,72,65,2.18,OM,1673049372
294,jaru,-10.4389,-62.4664,21.98,97,86,1.45,BR,1673049112
295,victoria,22.2855,114.1577,19.03,64,96,4.02,HK,1673049353
296,vytegra,61.0064,36.4481,-21.13,100,63,1.18,RU,1673049372
297,bhabua,25.05,83.6167,5.4,61,0,2.55,IN,1673049364
298,saint-georges,12.0564,-61.7485,25.82,78,20,4.63,GD,1673049373
299,tutoia,-2.7619,-42.2744,26.76,80,98,5.28,BR,1673049374
300,prainha,-1.8,-53.48,26.53,56,40,1.36,BR,1673049374
301,hualmay,-11.0964,-77.6139,21.16,79,84,3.41,PE,1673049375
302,marsh harbour,26.5412,-77.0636,23.17,73,73,6.51,BS,1673049375
303,qaqortoq,60.7167,-46.0333,-13.2,59,53,3.59,GL,1673049375
304,folldal,62.1325,9.9968,-11.22,96,100,5.03,NO,1673049377
305,cedral,23.8,-100.7333,18.64,27,0,4.19,MX,1673049377
306,pacific grove,36.6177,-121.9166,14.67,72,73,3.13,US,1673049377
307,longyearbyen,78.2186,15.6401,-4.09,86,75,0.51,SJ,1673049378
308,palmer,42.1584,-72.3287,2.3,87,75,0.0,US,1673049378
309,isiro,2.7739,27.616,18.44,53,38,1.58,CD,1673049278
310,ubata,-14.2139,-39.5228,21.53,98,94,0.68,BR,1673049379
311,hartford,41.7668,-72.7662,4.67,97,100,1.1,US,1673049379
312,salinopolis,-0.6136,-47.3561,26.13,81,46,4.88,BR,1673049197
313,luganville,-15.5333,167.1667,31.04,66,81,2.42,VU,1673049381
314,husavik,66.0449,-17.3389,-2.97,86,81,1.41,IS,1673049381
315,santa cruz,-17.8,-63.1667,30.03,42,27,4.12,BO,1673049382
316,nanortalik,60.1432,-45.2371,-7.49,58,51,2.38,GL,1673049382
317,luderitz,-26.6481,15.1594,20.02,55,0,6.42,NA,1673049363
318,suntar,62.1444,117.6319,-24.37,99,100,1.28,RU,1673049383
319,ambalavao,-21.8333,46.9333,16.65,94,49,1.46,MG,1673049384
320,raska,43.2872,20.6153,4.5,87,17,0.5,RS,1673049384
321,nortelandia,-14.4547,-56.8028,22.21,93,98,2.01,BR,1673049384
322,hofn,64.2539,-15.2082,-0.39,69,72,7.53,IS,1673049385
323,mahibadhoo,3.7833,72.9667,27.06,74,55,6.36,MV,1673049116
324,richards bay,-28.783,32.0377,19.09,91,100,6.97,ZA,1673049205
325,oranjemund,-28.55,16.4333,16.98,79,0,3.97,NA,1673049386
326,obidos,-1.9175,-55.5181,26.34,65,54,0.22,BR,1673049267
327,show low,34.2542,-110.0298,5.6,50,0,3.09,US,1673049387
328,samoded,63.6083,40.5111,-18.84,87,91,1.6,RU,1673049388
329,kupang,-10.1667,123.5833,27.32,94,40,3.6,ID,1673049133
330,poum,-20.2333,164.0167,27.56,85,98,7.72,NC,1673049389
331,nouakchott,18.0858,-15.9785,19.96,30,91,4.49,MR,1673049389
332,krasnoselkup,65.7,82.4667,-40.4,90,29,3.55,RU,1673049390
333,gizo,-8.103,156.8419,29.32,71,36,5.35,SB,1673049390
334,utevka,52.9035,50.9495,-27.78,96,6,3.43,RU,1673049391
335,saint george,37.1041,-113.5841,12.46,63,31,2.68,US,1673049391
336,vysokogornyy,50.1167,139.15,-22.6,98,91,0.9,RU,1673049391
337,kyzyl-suu,42.3414,78.0056,-3.19,61,91,3.54,KG,1673049392
338,santo tomas,14.1079,121.1414,25.83,82,54,4.52,PH,1673049179
339,lerwick,60.1545,-1.1494,7.0,74,98,6.09,GB,1673049393
340,iquique,-20.2208,-70.1431,22.02,81,93,2.42,CL,1673049393
341,arifwala,30.294,73.0735,9.11,24,63,1.41,PK,1673049394
342,sharjah,25.3573,55.4033,20.99,77,0,3.09,AE,1673049394
343,hemsedal,60.8629,8.5534,-11.09,97,100,1.05,NO,1673049395
344,mount isa,-20.7333,139.5,30.87,51,97,2.57,AU,1673049395
345,saint anthony,45.0205,-93.218,-12.48,86,24,1.14,US,1673049396
346,bairiki,1.3292,172.9752,30.0,79,20,3.6,KI,1673049396
347,baracoa,20.3467,-74.4958,24.28,85,43,3.07,CU,1673049191
348,kadnikov,59.5022,40.338,-30.08,99,9,1.92,RU,1673049397
349,nanakuli,21.3906,-158.1547,28.26,66,17,1.11,US,1673049397
350,togur,58.3631,82.8265,-25.43,97,10,2.36,RU,1673049398
351,chicama,-7.8447,-79.1469,19.3,71,88,2.96,PE,1673049398
352,paamiut,61.994,-49.6678,-6.9,57,98,3.41,GL,1673049399
353,reyes,-14.3167,-67.3833,23.16,77,3,1.52,BO,1673049399
354,olafsvik,64.8945,-23.7142,-0.47,78,85,10.33,IS,1673049399
355,tera,14.0078,0.7531,22.5,22,5,4.09,NE,1673049363
356,santa rosa,14.3122,121.1114,26.68,74,51,6.72,PH,1673049345
357,sinnamary,5.3833,-52.95,24.53,90,99,5.23,GF,1673049400
358,kosmynino,57.5818,40.7643,-27.29,100,44,2.1,RU,1673049401
359,emerald,-23.5333,148.1667,27.41,62,38,4.26,AU,1673049401
360,tiarei,-17.5333,-149.3333,30.01,72,5,1.52,PF,1673049402
361,umirim,-3.6772,-39.3503,24.39,83,94,1.55,BR,1673049402
362,tomatlan,19.9333,-105.25,26.34,63,0,2.69,MX,1673049403
363,asadabad,34.7824,48.1185,-2.03,89,39,2.18,IR,1673049212
364,pangkalanbuun,-2.6833,111.6167,24.7,92,91,0.94,ID,1673049181
365,la ronge,55.1001,-105.2842,-11.86,85,40,1.54,CA,1673049404
366,arona,28.0996,-16.681,14.35,62,20,4.12,ES,1673049404
367,norwich,52.6278,1.2983,12.79,86,100,6.17,GB,1673049405
368,wanning,18.8003,110.3967,19.43,74,99,4.46,CN,1673049405
369,kalemie,-5.9475,29.1947,20.41,85,75,2.16,CD,1673049405
370,jardim,-21.4803,-56.1381,25.03,56,96,2.64,BR,1673049120
371,zeya,53.75,127.2667,-24.63,98,100,0.98,RU,1673049407
372,smithers,54.7804,-127.1743,-1.82,93,100,2.06,CA,1673049407
373,tezu,27.9167,96.1667,13.96,38,0,1.8,IN,1673049408
374,manta,-0.95,-80.7333,26.88,74,75,3.6,EC,1673049408
375,lanzhou,36.0564,103.7922,1.57,20,0,2.62,CN,1673049205
376,xuddur,4.1213,43.8894,21.15,81,35,5.42,SO,1673049409
377,lazaro cardenas,17.9583,-102.2,27.24,67,0,4.09,MX,1673049410
378,kenai,60.5544,-151.2583,-7.73,92,97,2.67,US,1673049410
379,praia da vitoria,38.7333,-27.0667,14.31,82,20,2.91,PT,1673049411
380,tongzi,28.7829,105.0877,6.71,88,0,0.58,CN,1673049411
381,sawakin,19.1059,37.3321,21.78,59,53,4.73,SD,1673049377
382,saint-augustin,51.226,-58.6502,-13.95,90,44,1.64,CA,1673049412
383,makakilo city,21.3469,-158.0858,27.47,63,0,2.06,US,1673049183
384,omboue,-1.5746,9.2618,25.19,86,100,2.73,GA,1673049256
385,silvassa,20.2667,73.0167,22.28,57,54,2.15,IN,1673049414
386,ugoofaaru,5.6667,73.0,26.79,73,15,3.71,MV,1673049414
387,mishelevka,52.8575,103.1719,-17.69,96,100,1.71,RU,1673049414
388,leh,34.1667,77.5833,-14.39,45,87,0.25,IN,1673049415
389,knysna,-34.0363,23.0471,15.62,75,3,1.61,ZA,1673049416
390,iqaluit,63.7506,-68.5145,-25.15,69,100,3.09,CA,1673049416
391,sarangani,5.4033,125.4636,27.83,73,100,2.17,PH,1673049417
392,san jose,37.3394,-121.895,16.55,62,75,3.13,US,1673049417
393,boyolangu,-8.1181,111.8935,25.41,83,94,1.55,ID,1673049418
394,le port,-20.9373,55.2919,25.7,68,98,2.52,RE,1673049418
395,alyangula,-13.8483,136.4192,28.17,76,100,7.64,AU,1673049419
396,pozega,45.3403,17.6853,4.87,81,49,0.15,HR,1673049419
397,bilibino,68.0546,166.4372,-29.01,92,98,0.86,RU,1673049331
398,payakumbuh,-0.2202,100.6308,20.04,96,95,1.5,ID,1673049420
399,kahului,20.8947,-156.47,28.32,70,5,3.5,US,1673049420
400,bang saphan,11.2126,99.5117,24.66,64,98,5.98,TH,1673049421
401,mandera,3.9366,41.867,26.41,31,34,3.29,KE,1673049256
402,marshall,34.3834,-86.3333,9.17,52,0,0.0,US,1673049421
403,khandbari,27.3747,87.2039,10.6,28,0,2.24,NP,1673049422
404,terrasini,38.146,13.0844,13.45,82,0,1.54,IT,1673049423
405,lorengau,-2.0226,147.2712,28.34,78,97,3.77,PG,1673049423
406,barpeta,26.3167,91.0,12.43,60,0,2.1,IN,1673049424
407,beruwala,6.4788,79.9828,23.2,92,32,2.38,LK,1673049376
408,ruidoso,33.3317,-105.673,11.98,27,4,5.14,US,1673049425
409,flin flon,54.7682,-101.865,-13.09,85,100,4.63,CA,1673049425
410,port arthur,38.8,121.2667,-5.88,59,0,2.59,CN,1673049426
411,indian head,38.6001,-77.1622,8.27,54,61,0.45,US,1673049426
412,mount pleasant,32.7941,-79.8626,12.22,69,0,0.0,US,1673049427
413,astana,51.1801,71.446,-4.03,86,100,8.0,KZ,1673049427
414,santa cruz del norte,23.1539,-81.9236,23.12,75,36,7.69,CU,1673049271
415,asau,46.4333,26.4,-2.49,90,73,2.15,RO,1673049428
416,bitam,2.076,11.5007,20.08,99,85,1.2,GA,1673049429
417,nassjo,57.6531,14.6968,-1.49,98,100,3.02,SE,1673049429
418,laishevo,55.4046,49.5504,-28.77,97,12,3.95,RU,1673049429
419,tautira,-17.7333,-149.15,26.62,73,15,1.58,PF,1673049430
420,yantal,56.8471,105.2542,-10.09,97,100,1.41,RU,1673049431
421,tavistock,50.5494,-4.1442,12.26,98,100,4.02,GB,1673049431
422,bezhanitsy,56.9767,29.8907,-16.7,97,25,1.07,RU,1673049432
423,atakpame,7.5333,1.1333,24.44,38,3,1.56,TG,1673049229
424,rawah,34.4816,41.9093,10.26,63,52,3.25,IQ,1673049211
425,kawambwa,-9.7915,29.0791,15.96,95,100,0.61,ZM,1673049386
426,mattru,7.6244,-11.8332,21.93,92,0,0.74,SL,1673049433
427,amapa,1.0,-52.0,23.7,85,96,2.18,BR,1673049433
428,berdigestyakh,62.0989,126.6992,-40.85,100,84,1.64,RU,1673049434
429,nalut,30.3333,10.85,9.2,48,5,4.0,LY,1673049434
430,san ramon de la nueva oran,-23.1322,-64.326,32.46,24,66,1.18,AR,1673049435
431,margate,51.3813,1.3862,11.6,87,100,4.02,GB,1673049435
432,nowy tomysl,52.3195,16.1284,6.72,94,100,3.13,PL,1673049436
433,paciran,-6.8767,112.3761,25.59,81,100,4.18,ID,1673049173
434,zaysan,47.4667,84.8667,-3.45,97,100,1.18,KZ,1673049436
435,rawson,-43.3002,-65.1023,23.03,55,20,6.18,AR,1673049437
436,talnakh,69.4865,88.3972,-41.0,98,47,0.86,RU,1673049373
437,hope mills,34.9704,-78.9453,11.06,63,0,1.54,US,1673049139
438,kubanskiy,45.9292,40.5806,-1.31,89,100,6.78,RU,1673049438
439,ilulissat,69.2167,-51.1,-17.26,79,100,1.55,GL,1673049438
440,salinas,36.6777,-121.6555,15.34,65,70,0.45,US,1673049439
441,luau,-10.7073,22.2247,17.57,95,100,1.11,AO,1673049439
442,ubinskoye,55.3068,79.6802,-17.57,98,98,1.97,RU,1673049440
443,sao gabriel da cachoeira,-0.1303,-67.0892,22.94,98,80,1.15,BR,1673049183
444,kadoma,34.7333,135.5833,6.99,79,75,1.03,JP,1673049440
445,teknaf,20.8624,92.3058,15.81,79,0,3.25,BD,1673049441
446,souillac,-20.5167,57.5167,25.21,83,40,1.54,MU,1673049441
447,jalu,29.0331,21.5482,13.16,48,81,2.7,LY,1673049442
448,sakakah,29.9697,40.2064,8.76,68,4,1.78,SA,1673049442
449,isangel,-19.55,169.2667,27.62,84,71,6.69,VU,1673049443
450,erzin,36.9559,36.2,11.33,81,99,1.61,TR,1673049443
451,kenora,49.8167,-94.4337,-9.46,85,100,1.54,CA,1673049444
452,hay river,60.8156,-115.7999,-14.01,85,100,5.14,CA,1673049444
453,beni,0.5,29.4667,16.92,65,25,1.09,CD,1673049219
454,proletariy,58.4342,31.7046,-22.36,100,19,0.33,RU,1673049445
455,tambura,5.6,27.4667,20.81,37,36,2.11,SS,1673049445
456,vondrozo,-22.8167,47.2833,19.22,99,43,0.7,MG,1673049445
457,gunjur,13.2019,-16.7339,23.26,61,33,7.1,GM,1673049446
458,namibe,-15.1961,12.1522,21.54,74,86,3.07,AO,1673049446
459,alice springs,-23.7,133.8833,21.75,68,100,0.0,AU,1673049447
460,stornoway,58.2093,-6.3865,7.98,84,75,7.2,GB,1673049447
461,boralday,43.3578,76.8594,1.92,87,75,1.0,KZ,1673049448
462,fengcheng,40.4536,124.0717,-7.82,93,17,2.14,CN,1673049448
463,tokur,53.1333,132.9,-32.44,98,57,1.39,RU,1673049448
464,inta,66.0317,60.1659,-36.29,100,50,2.23,RU,1673049449
465,vestmanna,62.1564,-7.1664,-1.49,93,96,0.51,FO,1673049449
466,hailar,49.2,119.7,-29.0,98,35,2.21,CN,1673049450
467,laguna,38.421,-121.4238,14.86,67,75,1.34,US,1673049451
468,kamina,-8.7386,24.9906,18.25,94,100,1.22,CD,1673049272
469,constitucion,-35.3333,-72.4167,15.7,86,25,0.73,CL,1673049451
470,varhaug,58.6147,5.6457,7.75,90,76,4.77,NO,1673049452
471,miri,4.4148,114.0089,24.08,94,40,1.03,MY,1673049362
472,tarko-sale,64.9225,77.785,-36.56,85,95,3.78,RU,1673049453
473,san carlos de bariloche,-41.1456,-71.3082,23.86,38,40,8.23,AR,1673049453
474,bethanien,-26.502,17.1583,21.23,22,0,2.42,NA,1673049453
475,eyl,7.9803,49.8164,23.46,77,72,5.0,SO,1673049454
476,bonfim,3.0833,-59.95,26.14,74,100,2.32,BR,1673049454
477,peace river,56.2501,-117.286,-11.83,92,75,3.09,CA,1673049455
478,sri aman,1.2376,111.4621,23.03,100,62,0.0,MY,1673049455
479,kloulklubed,7.0419,134.2556,26.48,87,100,8.49,PW,1673049456
480,tay ninh,11.3,106.1,21.58,77,100,5.56,VN,1673049339
481,chopinzinho,-25.8558,-52.5233,18.68,58,0,2.46,BR,1673049457
482,bandarbeyla,9.4942,50.8122,24.85,69,58,5.04,SO,1673049457
483,brandon,27.9378,-82.2859,16.61,54,0,2.06,US,1673049457
484,manali,13.1667,80.2667,26.05,71,82,5.4,IN,1673049244
485,beloha,-25.1667,45.05,23.19,84,52,1.83,MG,1673049458
486,belaya gora,68.5333,146.4167,-37.02,99,100,0.73,RU,1673049458
487,tabou,4.423,-7.3528,25.86,82,40,3.01,CI,1673049356
488,lyubinskiy,55.1542,72.6925,-11.18,96,100,3.6,RU,1673049459
489,camacha,33.0833,-16.3333,15.68,77,20,1.03,PT,1673049460
490,taksimo,56.3444,114.8794,-24.66,97,100,0.52,RU,1673049460
491,fairbanks,64.8378,-147.7164,-15.22,82,100,0.0,US,1673049460
492,goleniow,53.5639,14.8285,4.71,100,0,1.03,PL,1673049461
493,kununurra,-15.7667,128.7333,26.99,78,100,5.66,AU,1673049462
494,panguipulli,-39.6333,-72.3333,18.73,61,38,1.08,CL,1673049462
495,gamba,-2.65,10.0,24.92,86,100,2.06,GA,1673049463
496,sembe,1.6481,14.5806,22.35,60,75,1.05,CG,1673049463
497,babayurt,43.6002,46.7789,4.88,76,100,3.58,RU,1673049464
498,oranjestad,12.524,-70.027,25.51,87,1,3.58,AW,1673049464
499,gazanjyk,39.2446,55.5154,7.83,59,0,2.62,TM,1673049218
500,quang ngai,15.1167,108.8,18.78,91,100,4.73,VN,1673049342
501,palora,-1.7,-77.9333,23.06,98,96,1.07,EC,1673049467
502,oktyabrskiy,54.4815,53.471,-32.48,100,38,2.17,RU,1673049467
503,las vegas,36.175,-115.1372,14.29,47,0,1.79,US,1673049447
504,tselinnoye,53.0833,85.6667,-10.01,97,100,1.8,RU,1673049468
505,vangazi,57.0936,24.5486,-15.12,73,100,4.31,LV,1673049469
506,pokrovsk,48.282,37.1758,-8.3,58,14,5.78,UA,1673049469
507,eganville,45.5334,-77.0994,-2.49,95,100,2.89,CA,1673049469
508,labuan,5.2767,115.2417,25.2,94,20,0.0,MY,1673049470
509,haines junction,60.7522,-137.5108,-10.03,85,100,0.0,CA,1673049471
510,ilheus,-14.7889,-39.0494,27.9,83,0,3.09,BR,1673049471
511,umba,66.6871,34.3429,-16.0,97,71,2.67,RU,1673049471
512,kwinana,-32.25,115.7667,19.53,56,0,2.68,AU,1673049472
513,kumluca,36.3703,30.2869,13.21,53,0,2.18,TR,1673049472
514,zhicheng,30.2956,111.5047,8.97,54,0,0.71,CN,1673049473
515,lhokseumawe,5.1801,97.1507,24.3,83,86,1.4,ID,1673049109
516,curillo,1.0333,-75.9191,25.38,70,100,1.15,CO,1673049473
517,olinda,-8.0089,-34.8553,26.85,74,40,3.6,BR,1673049474
518,teguldet,57.3064,88.1667,-21.61,97,92,3.49,RU,1673049475
519,yokadouma,3.5167,15.05,21.19,44,79,0.16,CM,1673049475
520,vilyuysk,63.7553,121.6247,-35.78,96,99,2.72,RU,1673049476
521,tabas,33.5959,56.9244,5.12,93,2,0.0,IR,1673049476
522,darya khan,31.7912,71.1039,9.73,25,77,0.62,PK,1673049477
523,aginskoye,51.1,114.53,-24.54,99,15,0.62,RU,1673049268
524,kaduna,10.5222,7.4383,19.49,26,69,4.23,NG,1673049478
525,inirida,3.8653,-67.9239,23.93,95,90,1.16,CO,1673049479
526,athabasca,54.7169,-113.2854,-7.77,92,23,1.52,CA,1673049479
527,mezen,65.8522,44.24,-23.84,92,62,2.16,RU,1673049479
528,pitimbu,-7.4706,-34.8086,27.33,70,100,4.8,BR,1673049480
529,coahuayana,18.7333,-103.6833,26.53,68,0,1.59,MX,1673049481
530,coquimbo,-29.9533,-71.3436,19.85,68,0,5.66,CL,1673049481
531,burriana,39.889,-0.085,9.28,89,1,1.74,ES,1673049482
532,pontianak,-0.0333,109.3333,23.99,94,40,0.0,ID,1673049482
533,vao,-22.6667,167.4833,26.59,77,94,2.39,NC,1673049482
534,chandauli,25.2667,83.2667,4.75,66,0,3.46,IN,1673049220
535,mpongwe,-13.5091,28.155,17.61,98,100,1.57,ZM,1673049483
536,rio grande,-32.035,-52.0986,24.06,70,0,8.08,BR,1673049483
537,carnarvon,-24.8667,113.6333,24.81,53,1,10.77,AU,1673049422
538,tubinskiy,52.8892,58.2225,-6.83,90,99,6.79,RU,1673049484
539,awbari,26.5921,12.7805,10.4,49,6,3.4,LY,1673049485
540,sisimiut,66.9395,-53.6735,-9.1,81,100,1.64,GL,1673049380
541,astoria,46.1879,-123.8313,10.64,80,98,2.24,US,1673049485
542,trincomalee,8.5711,81.2335,25.42,83,66,6.63,LK,1673049486
543,la romana,18.4273,-68.9728,26.2,83,75,3.09,DO,1673049486
544,opuwo,-18.0607,13.84,20.29,36,54,2.41,NA,1673049487
545,beidao,34.5686,105.8933,-0.15,82,0,1.33,CN,1673049487
546,daniel flores,9.3355,-83.6694,20.55,88,34,0.95,CR,1673049488
547,jawor,51.0513,16.1935,9.22,85,100,4.33,PL,1673049488
548,hamilton,39.1834,-84.5333,3.18,78,69,1.41,US,1673049489
549,anloga,5.7947,0.8973,26.33,85,49,4.01,GH,1673049274
550,bouna,9.2667,-3.0,24.31,26,2,1.89,CI,1673049357
551,kankon,15.0167,74.0167,23.08,62,0,3.45,IN,1673049490
552,canmore,51.0834,-115.3521,5.06,96,60,5.14,CA,1673049490
553,izhma,65.0083,53.9113,-23.7,99,100,0.62,RU,1673049490
554,methoni,36.8197,21.7049,12.34,75,10,1.59,GR,1673049491
555,bonavista,48.6499,-53.1147,-3.34,65,14,1.95,CA,1673049491
556,la suiza,9.8524,-83.6133,19.63,98,51,0.41,CR,1673049492
557,arlit,18.7369,7.3853,19.48,23,46,3.64,NE,1673049492
558,vacenovice,48.9451,17.174,8.27,91,96,1.65,CZ,1673049493
559,antofagasta,-23.65,-70.4,20.6,74,8,2.75,CL,1673049493
560,kozhevnikovo,56.2589,83.9714,-27.39,100,67,1.88,RU,1673049494
561,magan,39.9683,-3.931,6.96,79,0,1.8,ES,1673049494
562,san ramon,37.7799,-121.978,15.74,72,95,1.34,US,1673049494
563,krasnoarmeysk,51.0239,45.6969,-18.9,85,95,5.54,RU,1673049496
564,powell river,49.8496,-124.5361,9.0,76,75,7.2,CA,1673049496
565,pakxan,18.3778,103.6601,14.06,78,46,2.11,LA,1673049496
566,micheweni,-4.9667,39.8333,26.87,77,92,4.49,TZ,1673049497
