City_ID,City,Lat,Lng,Max Temp,Humidity,Cloudiness,Wind Speed,Country,Date
0,acarau,-2.8856,-40.12,26.59,78,100,6.29,BR,1673051986
1,tasiilaq,65.6145,-37.6368,-7.91,69,100,3.05,GL,1673051987
2,muisne,0.6,-80.0333,24.11,81,100,2.93,EC,1673051988
3,rikitea,-23.1203,-134.9692,26.1,72,6,6.19,PF,1673051989
4,joaima,-16.6542,-41.0306,21.77,97,100,0.61,BR,1673051989
5,busselton,-33.65,115.3333,18.48,56,99,4.52,AU,1673051990
6,bathsheba,13.2167,-59.5167,26.34,78,40,7.72,BB,1673051990
7,torbay,47.6666,-52.7314,-2.46,85,40,3.6,CA,1673051990
8,ibra,22.6906,58.5334,15.27,73,0,0.74,OM,1673051991
9,georgetown,5.4112,100.3354,25.96,86,20,4.12,MY,1673051727
10,jiexiu,37.0244,111.9125,2.98,27,0,0.72,CN,1673051992
11,kapuskasing,49.4169,-82.4331,-11.95,85,100,5.14,CA,1673051992
12,waiuku,-37.25,174.75,22.14,97,100,2.43,NZ,1673051794
13,norman wells,65.282,-126.8329,-19.98,77,75,2.57,CA,1673051993
14,puerto ayora,-0.7393,-90.3518,23.08,95,9,1.34,EC,1673051993
15,sobolevo,54.4299,31.8996,-16.4,92,10,1.93,RU,1673051994
16,praia da vitoria,38.7333,-27.0667,14.31,82,20,3.05,PT,1673051994
17,lebu,-37.6167,-73.65,15.08,88,77,0.69,CL,1673051995
18,butaritari,3.0707,172.7902,27.06,77,98,6.26,KI,1673051995
19,bukachacha,52.9833,116.9167,-26.89,100,93,0.38,RU,1673051996
20,victoria,22.2855,114.1577,19.03,64,78,1.79,HK,1673051834
21,albany,42.6001,-73.9662,3.54,83,66,0.89,US,1673051996
22,vao,-22.6667,167.4833,26.6,74,96,1.12,NC,1673051997
23,bluff,-46.6,168.3333,14.19,61,0,9.37,NZ,1673051997
24,nanortalik,60.1432,-45.2371,-7.85,57,52,2.05,GL,1673051998
25,port alfred,-33.5906,26.891,13.99,88,77,3.38,ZA,1673051998
26,yellowknife,62.456,-114.3525,-10.71,92,75,2.57,CA,1673051999
27,altamira,-3.2033,-52.2064,22.28,95,100,0.91,BR,1673052000
28,mataura,-46.1927,168.8643,18.96,43,18,3.29,NZ,1673052000
29,qaanaaq,77.484,-69.3632,-23.98,99,100,0.9,GL,1673052001
30,punta arenas,-53.15,-70.9167,15.06,36,75,4.63,CL,1673052002
31,pevek,69.7008,170.3133,-30.73,97,99,0.21,RU,1673052002
32,te anau,-45.4167,167.7167,15.89,68,94,1.79,NZ,1673052003
33,ushuaia,-54.8,-68.3,13.81,41,40,2.06,AR,1673052004
34,bethel,41.3712,-73.414,5.76,88,89,0.45,US,1673052004
35,bonthe,7.5264,-12.505,24.53,82,0,2.29,SL,1673052005
36,tuktoyaktuk,69.4541,-133.0374,-21.0,77,100,4.12,CA,1673052005
37,souillac,-20.5167,57.5167,25.21,78,75,3.6,MU,1673052006
38,cape town,-33.9258,18.4232,19.1,74,0,8.23,ZA,1673051731
39,hermanus,-34.4187,19.2345,13.78,76,0,4.67,ZA,1673052007
40,behbahan,30.5959,50.2417,10.33,84,0,1.86,IR,1673052007
41,port moresby,-9.4431,147.1797,28.68,74,40,6.69,PG,1673051767
42,gazanjyk,39.2446,55.5154,7.69,59,0,2.87,TM,1673052008
43,hovd,48.0056,91.6419,-8.65,69,100,3.16,MN,1673052008
44,vaini,-21.2,-175.2,29.09,84,40,7.2,TO,1673052009
45,hasaki,35.7333,140.8333,5.12,83,99,3.59,JP,1673052010
46,lavrentiya,65.5833,-171.0,-14.58,95,98,1.22,RU,1673052010
47,mar del plata,-38.0023,-57.5575,25.01,72,0,7.15,AR,1673052011
48,aykhal,66.0,111.5,-31.7,100,100,1.75,RU,1673052011
49,santa isabel do rio negro,-0.4139,-65.0192,23.22,97,100,0.9,BR,1673052012
50,mareeba,-17.0,145.4333,25.8,92,98,2.49,AU,1673052012
51,lucan,53.3592,-6.4389,11.29,89,75,8.75,IE,1673052013
52,atuona,-9.8,-139.0333,25.94,73,1,6.23,PF,1673052013
53,zhuhai,22.2769,113.5678,17.88,67,20,6.17,CN,1673052014
54,klaksvik,62.2266,-6.589,-1.49,64,100,3.76,FO,1673052014
55,eluru,16.7,81.1,22.05,93,0,2.14,IN,1673052014
56,namibe,-15.1961,12.1522,21.36,74,70,3.12,AO,1673052015
57,hilo,19.7297,-155.09,31.27,70,20,4.63,US,1673052015
58,kaitangata,-46.2817,169.8464,14.45,57,12,4.41,NZ,1673052016
59,jamestown,42.097,-79.2353,0.86,72,100,2.24,US,1673052017
60,haines junction,60.7522,-137.5108,-11.03,85,100,0.0,CA,1673052017
61,corner brook,48.9667,-57.9484,-8.91,92,100,1.5,CA,1673052018
62,bulgan,48.8125,103.5347,-10.73,82,95,2.08,MN,1673052019
63,port hedland,-20.3167,118.5667,30.03,70,8,6.69,AU,1673052019
64,kelso,46.1468,-122.9084,11.36,85,75,4.63,US,1673052020
65,bemidji,47.4736,-94.8803,-11.13,92,0,0.0,US,1673052020
66,tuatapere,-46.1333,167.6833,16.16,61,93,2.89,NZ,1673052021
67,avera,33.194,-82.5271,8.28,63,4,2.82,US,1673052021
68,barrow,71.2906,-156.7887,-20.99,84,100,8.75,US,1673052022
69,ulaangom,49.9811,92.0667,-25.24,97,96,1.89,MN,1673052022
70,beringovskiy,63.05,179.3167,-20.67,97,79,4.06,RU,1673052023
71,geraldton,-28.7667,114.6,20.23,60,0,8.75,AU,1673052023
72,saint-philippe,-21.3585,55.7679,24.77,82,100,5.12,RE,1673052024
73,mangai,-4.05,19.5333,20.13,98,96,0.81,CD,1673052024
74,bereda,43.2686,-7.5406,10.79,76,100,5.16,ES,1673052024
75,mahebourg,-20.4081,57.7,25.7,78,75,3.6,MU,1673052026
76,guerrero negro,27.9769,-114.0611,16.66,69,0,4.92,MX,1673052027
77,krutinka,56.0055,71.5113,-11.93,94,100,4.79,RU,1673052027
78,cidreira,-30.1811,-50.2056,22.02,71,0,6.79,BR,1673052028
79,hithadhoo,-0.6,73.0833,26.94,75,20,3.79,MV,1673052028
80,nikolskoye,59.7035,30.7861,-8.06,99,87,1.32,RU,1673052029
81,glasgow,55.8652,-4.2576,10.11,86,75,3.09,GB,1673052029
82,saskylakh,71.9167,114.0833,-45.76,100,75,2.06,RU,1673052030
83,castro,-24.7911,-50.0119,12.77,95,18,3.24,BR,1673052030
84,pokhara,28.2333,83.9833,12.41,11,0,3.2,NP,1673051893
85,new norfolk,-42.7826,147.0587,19.95,37,0,2.07,AU,1673052031
86,clinton,42.587,-82.9199,3.27,85,100,3.6,US,1673052031
87,eyl,7.9803,49.8164,23.06,76,65,4.7,SO,1673052032
88,longyearbyen,78.2186,15.6401,-4.09,86,75,0.51,SJ,1673052032
89,henties bay,-22.116,14.2845,15.7,88,0,3.34,NA,1673052033
90,chuy,-33.6971,-53.4616,19.89,82,0,4.43,UY,1673052034
91,cayenne,4.9333,-52.3333,23.02,94,75,0.51,GF,1673052034
92,hobart,-42.8794,147.3294,19.59,64,0,0.89,AU,1673051924
93,upernavik,72.7868,-56.1549,-26.97,87,5,4.85,GL,1673052035
94,sakakah,29.9697,40.2064,8.76,68,1,1.76,SA,1673052035
95,la baule-escoublac,47.2922,-2.364,11.81,88,0,7.72,FR,1673052036
96,launceston,-41.45,147.1667,17.8,55,100,2.57,AU,1673052036
97,khatanga,71.9667,102.5,-46.98,100,94,0.81,RU,1673052037
98,ilulissat,69.2167,-51.1,-10.99,52,75,2.06,GL,1673052037
99,palora,-1.7,-77.9333,18.68,98,95,1.22,EC,1673052038
100,olafsvik,64.8945,-23.7142,-0.05,75,100,10.77,IS,1673052039
101,constantine,36.365,6.6147,2.67,100,40,0.0,DZ,1673052039
102,bredasdorp,-34.5322,20.0403,16.55,77,4,2.29,ZA,1673052040
103,ribeira grande,38.5167,-28.7,14.87,87,90,0.89,PT,1673052040
104,saldanha,-33.0117,17.9442,16.03,80,0,7.03,ZA,1673052040
105,neenah,44.1858,-88.4626,-2.3,89,100,2.06,US,1673052041
106,velikiy ustyug,60.7644,46.3106,-28.56,97,8,2.31,RU,1673052041
107,los llanos de aridane,28.6585,-17.9182,15.86,72,75,4.12,ES,1673052042
108,bogorodskoye,56.55,37.8833,-29.3,100,100,1.47,RU,1673052042
109,sainte-marie,-20.8968,55.5496,25.79,71,75,6.17,RE,1673052043
110,flinders,-34.5833,150.8552,20.21,76,91,3.13,AU,1673052044
111,provideniya,64.3833,-173.3,-14.92,94,95,2.9,RU,1673052045
112,guerande,47.3291,-2.4283,11.68,90,100,9.89,FR,1673052045
113,arlit,18.7369,7.3853,19.05,23,27,3.2,NE,1673052046
114,sitka,57.0531,-135.33,5.94,81,100,2.57,US,1673052046
115,aguimes,27.9054,-15.4461,16.35,63,20,4.63,ES,1673052047
116,bertoua,4.5833,13.6833,20.89,41,99,1.41,CM,1673052047
117,ekibastuz,51.6667,75.3667,-5.25,87,100,6.32,KZ,1673052048
118,boffa,10.1667,-14.0333,23.61,80,0,1.78,GN,1673052048
119,mongu,-15.2484,23.1274,19.29,94,100,2.45,ZM,1673052049
120,tsumeb,-19.2333,17.7167,22.38,49,92,1.67,NA,1673052049
121,leh,34.1667,77.5833,-13.9,52,73,1.04,IN,1673052050
122,taoudenni,22.6783,-3.9836,16.21,25,69,4.68,ML,1673052050
123,lagoa,39.05,-27.9833,14.95,77,100,5.2,PT,1673052051
124,puerto escondido,15.85,-97.0667,28.46,65,0,1.54,MX,1673052051
125,port blair,11.6667,92.75,27.02,78,40,2.57,IN,1673052052
126,east london,-33.0153,27.9116,16.21,71,19,3.27,ZA,1673052052
127,udachnyy,66.4167,112.4,-36.42,73,100,1.23,RU,1673052052
128,ostrovnoy,68.0531,39.5131,-17.59,93,90,1.82,RU,1673052053
129,yabrud,33.9674,36.6574,3.2,83,16,1.91,SY,1673052053
130,iqaluit,63.7506,-68.5145,-25.15,69,100,5.66,CA,1673052054
131,kieta,-6.2167,155.6333,29.21,72,100,3.44,PG,1673052054
132,bauta,22.9828,-82.5464,21.94,73,0,5.66,CU,1673052055
133,aleksandrov gay,50.147,48.5704,-12.56,60,100,8.45,RU,1673052055
134,sharjah,25.3573,55.4033,21.99,77,0,5.14,AE,1673051760
135,la ronge,55.1001,-105.2842,-12.86,85,20,3.09,CA,1673052056
136,parana,-31.732,-60.5238,30.31,64,43,4.45,AR,1673052056
137,athabasca,54.7169,-113.2854,-9.77,91,6,1.93,CA,1673052057
138,yumen,40.2833,97.2,-1.71,22,100,0.59,CN,1673052057
139,san cristobal,7.7669,-72.225,22.1,86,12,0.51,VE,1673052058
140,mackay,-21.15,149.2,32.05,72,100,6.65,AU,1673051771
141,lazaro cardenas,17.9583,-102.2,25.54,72,0,3.27,MX,1673052058
142,sunrise manor,36.2111,-115.0731,14.23,56,0,4.63,US,1673052059
143,tonota,-21.4833,27.4833,17.33,92,100,7.48,BW,1673052059
144,thompson,55.7435,-97.8558,-12.91,85,100,3.6,CA,1673052060
145,cherskiy,68.75,161.3,-39.77,98,100,1.15,RU,1673052060
146,arraial do cabo,-22.9661,-42.0278,21.11,89,100,5.97,BR,1673052061
147,isangel,-19.55,169.2667,28.29,81,92,7.47,VU,1673052061
148,san patricio,28.017,-97.5169,23.42,79,0,7.15,US,1673052062
149,dalbandin,28.8947,64.4101,13.15,37,59,0.46,PK,1673052062
150,rawson,-43.3002,-65.1023,22.01,61,21,4.9,AR,1673052063
151,chokurdakh,70.6333,147.9167,-39.09,100,100,0.73,RU,1673052063
152,tigil,57.8,158.6667,-22.63,91,67,0.88,RU,1673052064
153,pauini,-7.7136,-66.9764,21.88,99,100,0.59,BR,1673052064
154,port elizabeth,-33.918,25.5701,15.73,84,0,2.06,ZA,1673052062
155,severo-kurilsk,50.6789,156.125,-4.34,77,85,4.93,RU,1673052065
156,labuhan,-6.8844,112.2051,26.59,75,88,3.87,ID,1673052066
157,biltine,14.5333,20.9167,17.08,28,10,5.13,TD,1673052066
158,ponta do sol,32.6667,-17.1,18.34,71,39,2.26,PT,1673052066
159,nelson bay,-32.7167,152.15,22.22,94,86,5.36,AU,1673051992
160,la seyne-sur-mer,43.0982,5.8847,12.71,77,100,1.48,FR,1673052068
161,coquimbo,-29.9533,-71.3436,18.85,77,0,4.63,CL,1673052068
162,mama,58.3106,112.8986,-12.37,97,100,2.34,RU,1673052069
163,fairbanks,64.8378,-147.7164,-14.67,81,100,0.0,US,1673052070
164,xining,36.6167,101.7667,-4.62,24,0,1.19,CN,1673051879
165,san rafael,-34.6177,-68.3301,31.33,22,40,3.6,AR,1673052070
166,arman,59.7,150.1667,-19.44,80,100,3.39,RU,1673052071
167,pocone,-16.2567,-56.6228,24.97,58,100,1.72,BR,1673052071
168,morondava,-20.2833,44.2833,25.34,80,100,1.84,MG,1673052072
169,salalah,17.0151,54.0924,22.05,78,20,1.54,OM,1673052072
170,teknaf,20.8624,92.3058,15.73,81,0,3.13,BD,1673052072
171,lithgow,-33.4833,150.15,16.28,66,73,3.45,AU,1673051991
172,carnarvon,-24.8667,113.6333,25.94,48,0,10.66,AU,1673052073
173,omboue,-1.5746,9.2618,25.1,85,100,2.24,GA,1673052074
174,kulhudhuffushi,6.6221,73.07,26.45,69,0,1.6,MV,1673052074
175,port-cartier,50.0334,-66.8654,-9.18,95,100,3.88,CA,1673052075
176,burnie,-41.0667,145.9167,17.19,65,72,6.29,AU,1673052075
177,governador dix-sept rosado,-5.4577,-37.5209,27.59,53,5,6.13,BR,1673052075
178,kosh-agach,50.0,88.6667,-17.21,97,67,1.2,RU,1673052076
179,anadyr,64.75,177.4833,-21.72,84,20,4.0,RU,1673052076
180,okhotsk,59.3833,143.3,-28.0,85,24,5.26,RU,1673052077
181,marshall,34.3834,-86.3333,9.5,58,0,0.0,US,1673052078
182,dikson,73.5069,80.5464,-36.56,100,85,0.54,RU,1673052078
183,pisco,-13.7,-76.2167,21.03,88,0,3.6,PE,1673052079
184,adrar,20.5022,-10.0711,16.9,21,100,5.18,MR,1673052079
185,qitaihe,45.8,130.85,-16.38,93,37,0.52,CN,1673052079
186,tutoia,-2.7619,-42.2744,26.15,85,100,5.32,BR,1673052080
187,avarua,-21.2078,-159.775,27.03,83,100,1.54,CK,1673052080
188,ixtapa,20.7,-105.2,25.57,78,20,3.6,MX,1673052081
189,songjianghe,42.1859,127.479,-7.76,91,100,0.93,CN,1673052082
190,kowary,50.7931,15.8356,7.42,91,100,1.92,PL,1673052082
191,airai,-8.9266,125.4092,20.82,72,67,1.94,TL,1673052082
192,tay ninh,11.3,106.1,22.18,72,100,5.71,VN,1673051293
193,port loko,8.7667,-12.7833,20.95,93,0,1.62,SL,1673052084
194,challans,46.8436,-1.8749,11.65,89,100,7.52,FR,1673052085
195,finote selam,10.7,37.2667,13.95,78,28,1.61,ET,1673052085
196,katsuura,35.1333,140.3,8.1,70,90,2.51,JP,1673051985
197,bandiagara,14.3501,-3.6104,22.2,24,0,4.26,ML,1673052086
198,baglung,28.2719,83.5898,9.51,13,0,3.3,NP,1673052087
199,shaunavon,49.6501,-108.4181,-5.12,96,90,5.77,CA,1673052087
200,paramirim,-13.4425,-42.2389,21.5,88,100,0.38,BR,1673052088
201,lalsot,26.5667,76.3333,4.76,52,2,1.84,IN,1673052088
202,constitucion,-35.3333,-72.4167,14.88,88,2,1.02,CL,1673052089
203,tingo maria,-9.2895,-76.0088,19.67,98,100,0.57,PE,1673052089
204,qingdao,36.0986,120.3719,-2.22,54,0,1.0,CN,1673052090
205,alofi,-19.0595,-169.9187,24.94,88,100,3.6,NU,1673052090
206,esso,55.9333,158.7,-12.91,92,100,0.41,RU,1673052091
207,altay,47.8667,88.1167,-7.83,89,100,1.94,CN,1673052091
208,javanrud,34.7961,46.5172,0.56,91,28,1.47,IR,1673052092
209,mount gambier,-37.8333,140.7667,29.86,21,0,2.74,AU,1673052092
210,witu,-2.3889,40.4382,26.09,89,3,1.75,KE,1673052093
211,fortuna,40.5982,-124.1573,13.19,94,100,10.8,US,1673052093
212,rocha,-34.4833,-54.3333,18.22,90,0,4.14,UY,1673052094
213,port augusta,-32.5,137.7667,33.14,16,0,2.56,AU,1673052094
214,bajil,15.0584,43.2851,23.39,82,5,1.36,YE,1673052095
215,jabinyanah,35.035,10.9081,12.42,76,86,4.58,TN,1673052095
216,afua,-0.1567,-50.3867,23.9,90,49,2.57,BR,1673052096
217,khorixas,-20.3667,14.9667,18.56,42,100,1.86,NA,1673052097
218,orichi,58.4036,49.0572,-27.85,97,31,3.03,RU,1673052097
219,tiksi,71.6872,128.8694,-34.53,99,98,2.46,RU,1673052098
220,padang,-0.9492,100.3543,23.03,83,63,0.92,ID,1673051484
221,narsaq,60.9167,-46.05,-5.88,63,100,3.34,GL,1673052098
222,luruaco,10.6092,-75.1431,26.79,89,0,4.13,CO,1673052099
223,saint-pierre,-21.3393,55.4781,25.51,65,20,2.06,RE,1673052099
224,inta,66.0317,60.1659,-36.5,100,31,2.05,RU,1673052100
225,vicente guerrero,19.1194,-98.1708,14.18,40,9,2.37,MX,1673052100
226,lexington,37.9887,-84.4777,4.0,64,0,2.57,US,1673052101
227,el alto,-4.2714,-81.2147,19.64,78,100,6.3,PE,1673052101
228,dicabisagan,17.0818,122.4157,24.09,77,99,3.93,PH,1673052102
229,luderitz,-26.6481,15.1594,20.23,53,0,6.06,NA,1673052102
230,phuket,8.0,98.25,24.12,88,40,1.03,TH,1673051953
231,oranjestad,12.524,-70.027,25.51,86,20,7.2,AW,1673052103
232,undory,54.6085,48.3928,-27.42,94,8,5.11,RU,1673052103
233,kapaa,22.0752,-159.319,25.99,73,0,2.24,US,1673052104
234,vardo,70.3705,31.1107,-0.01,74,75,9.77,NO,1673052104
235,naze,28.3667,129.4833,14.51,56,2,8.3,JP,1673052105
236,antakya,36.2066,36.1572,9.9,93,100,2.01,TR,1673052105
237,gallup,35.5281,-108.7426,3.42,66,54,0.89,US,1673052106
238,bud,39.447,-86.1758,2.32,82,35,2.36,US,1673052106
239,black river,18.0264,-77.8487,23.66,82,1,2.01,JM,1673052107
240,komsomolskiy,40.4272,71.7189,-0.6,93,48,2.06,UZ,1673052107
241,esperance,-33.8667,121.9,17.97,62,90,6.26,AU,1673052107
242,kahului,20.8947,-156.47,28.87,65,0,9.77,US,1673052108
243,vestmannaeyjar,63.4427,-20.2734,0.0,68,100,6.08,IS,1673052108
244,goderich,43.7501,-81.7165,2.18,87,100,3.6,CA,1673052109
245,lixourion,38.2019,20.4314,13.06,77,38,1.86,GR,1673052109
246,mayo,38.8876,-76.5119,8.06,61,0,3.09,US,1673052110
247,leningradskiy,69.3833,178.4167,-23.7,98,100,3.92,RU,1673052110
248,ambon,-3.6954,128.1814,29.08,74,40,4.63,ID,1673051959
249,sao miguel do araguaia,-13.275,-50.1628,21.03,97,100,0.15,BR,1673052111
250,bubaque,11.2833,-15.8333,25.78,64,100,4.54,GW,1673052111
251,shakiso,5.75,38.9167,11.29,66,12,1.86,ET,1673052112
252,yuzhno-kurilsk,44.0306,145.8556,-0.87,65,71,4.35,RU,1673052113
253,saint george,37.1041,-113.5841,11.33,69,20,3.6,US,1673052113
254,meulaboh,4.1363,96.1285,24.49,86,100,1.24,ID,1673052113
255,grindavik,63.8424,-22.4338,-0.74,64,75,7.2,IS,1673052114
256,deep river,46.1001,-77.4995,-2.25,95,100,2.22,CA,1673052115
257,roros,62.5747,11.3842,-8.09,79,100,6.69,NO,1673052115
258,dudinka,69.4058,86.1778,-40.77,94,34,4.45,RU,1673052115
259,seminole,28.7086,-81.2081,16.15,63,0,2.06,US,1673052116
260,sao joao da barra,-21.6403,-41.0511,23.05,94,100,5.64,BR,1673052116
261,talnakh,69.4865,88.3972,-41.0,98,58,0.81,RU,1673052117
262,guanica,17.9716,-66.908,25.59,84,8,3.41,PR,1673052117
263,dali,25.7,100.1833,6.18,76,0,0.66,CN,1673052118
264,bambous virieux,-20.3428,57.7575,25.68,78,75,3.6,MU,1673052118
265,ende,-8.8432,121.6623,28.25,77,85,3.83,ID,1673052119
266,bengkulu,-3.8004,102.2655,24.77,82,68,1.77,ID,1673052119
267,unity,52.4501,-109.1682,-7.87,93,24,3.29,CA,1673052120
268,cockburn town,21.4612,-71.1419,24.98,78,75,4.12,TC,1673052120
269,shihezi,44.3,86.0333,-8.41,88,100,1.0,CN,1673052121
270,price,39.5994,-110.8107,-1.05,93,0,2.06,US,1673052121
271,vanderhoof,54.0166,-124.0198,-7.46,98,31,0.73,CA,1673052122
272,tieling,42.2931,123.8414,-11.39,81,6,0.07,CN,1673052122
273,mikhaylovka,50.06,43.2379,-15.16,74,5,7.24,RU,1673052123
274,acapulco,16.8634,-99.8901,27.9,74,0,4.63,MX,1673052123
275,valparaiso,-33.0393,-71.6273,18.8,72,0,3.09,CL,1673052124
276,hay river,60.8156,-115.7999,-14.01,85,100,3.6,CA,1673052124
277,thouars,46.976,-0.2151,6.78,86,16,4.78,FR,1673052125
278,chernyshevskiy,63.0128,112.4714,-29.05,99,100,1.22,RU,1673052125
279,la sarre,48.8002,-79.1996,-14.06,94,100,2.18,CA,1673052125
280,ola,59.5833,151.2833,-19.37,72,100,3.78,RU,1673052126
281,ambilobe,-13.2,49.05,22.36,91,64,1.59,MG,1673052126
282,zhigansk,66.7697,123.3711,-46.39,100,94,0.87,RU,1673052127
283,mecca,21.4267,39.8261,18.22,64,0,2.14,SA,1673052127
284,shakawe,-18.3667,21.85,19.47,90,100,1.28,BW,1673052128
285,vitim,59.4511,112.5578,-10.41,96,100,2.15,RU,1673052128
286,kintampo,8.0563,-1.7306,25.94,36,5,0.32,GH,1673052128
287,seymchan,62.8833,152.4333,-44.43,98,94,0.57,RU,1673052129
288,zhuanghe,39.7008,122.9911,-3.33,54,0,3.82,CN,1673052130
289,kodiak,57.79,-152.4072,-2.27,74,0,2.06,US,1673052130
290,suez,29.9737,32.5263,13.5,64,28,1.54,EG,1673052130
291,novoagansk,61.9449,76.6625,-22.9,99,100,1.66,RU,1673052131
292,gushikawa,26.3544,127.8686,17.57,56,0,7.2,JP,1673051853
293,borisoglebskiy,57.2586,39.1508,-30.27,100,48,2.34,RU,1673052132
294,ballina,-28.8667,153.5667,26.68,67,42,6.79,AU,1673052133
295,thunder bay,48.4001,-89.3168,-9.01,79,100,2.57,CA,1673052133
296,houma,29.5958,-90.7195,16.11,70,0,2.57,US,1673052003
297,glushkovo,51.3392,34.6328,-13.56,73,6,3.72,RU,1673052134
298,qeshm,26.9581,56.2719,15.94,80,89,2.52,IR,1673052134
299,kavieng,-2.5744,150.7967,29.21,66,88,1.16,PG,1673052134
300,marawi,7.9986,124.2928,19.91,96,100,1.17,PH,1673052135
301,brejo,-3.6844,-42.7503,23.24,95,100,1.78,BR,1673052135
302,makarov,48.6333,142.8,-10.91,76,50,1.73,RU,1673052010
303,paredon,16.0333,-93.8667,26.58,62,4,6.9,MX,1673052136
304,gizo,-8.103,156.8419,29.7,69,99,4.76,SB,1673052137
305,rio gallegos,-51.6226,-69.2181,13.03,58,75,3.6,AR,1673052137
306,domoni,-12.2569,44.5319,25.93,86,38,2.28,KM,1673052138
307,port pirie,-33.1833,138.0167,32.27,21,0,3.33,AU,1673052138
308,serenje,-13.2325,30.2352,15.47,98,100,1.65,ZM,1673052139
309,matara,5.9485,80.5353,22.9,91,65,2.0,LK,1673052139
310,popondetta,-8.7537,148.2534,29.29,69,100,1.24,PG,1673052140
311,sao filipe,14.8961,-24.4956,22.75,66,100,4.61,CV,1673052106
312,paamiut,61.994,-49.6678,-7.23,57,100,3.44,GL,1673052140
313,goure,13.9835,10.2704,15.08,29,0,4.46,NE,1673052141
314,puerto maldonado,-12.6,-69.1833,20.18,90,23,1.04,PE,1673052142
315,stavern,59.0,10.0333,-1.57,97,72,2.41,NO,1673052142
316,port macquarie,-31.4333,152.9167,21.72,77,65,6.18,AU,1673051992
317,dubbo,-32.25,148.6167,26.07,44,0,7.72,AU,1673052077
318,belmonte,-15.8631,-38.8828,25.12,89,100,3.78,BR,1673052143
319,ketchikan,55.3422,-131.6461,6.99,87,100,4.12,US,1673052144
320,moose factory,51.2585,-80.6094,-12.0,85,100,3.09,CA,1673052144
321,poum,-20.2333,164.0167,27.79,84,68,8.65,NC,1673052145
322,borinskoye,52.4569,39.3713,-17.71,87,63,4.12,RU,1673052145
323,dunedin,-45.8742,170.5036,15.45,95,54,3.46,NZ,1673052146
324,cairns,-16.9167,145.7667,28.37,83,99,1.03,AU,1673051985
325,kirensk,57.7853,108.1119,-9.18,96,100,2.42,RU,1673052146
326,donetsk,48.0,37.8,-7.6,56,5,5.44,UA,1673051970
327,chicama,-7.8447,-79.1469,16.3,75,96,2.14,PE,1673052147
328,fort-shevchenko,44.5086,50.263,5.66,95,100,0.92,KZ,1673052148
329,palmer,42.1584,-72.3287,2.36,87,100,1.54,US,1673052148
330,melilla,35.2937,-2.9383,8.21,93,0,1.54,ES,1673052149
331,cap malheureux,-19.9842,57.6142,25.82,71,98,2.24,MU,1673052149
332,saint-joseph,-21.3667,55.6167,24.21,80,100,4.77,RE,1673052150
333,visby,57.6409,18.296,-1.77,93,100,6.17,SE,1673052150
334,faanui,-16.4833,-151.75,27.3,72,95,4.41,PF,1673052151
335,taksimo,56.3444,114.8794,-24.87,97,100,0.55,RU,1673052151
336,astana,51.1801,71.446,-4.03,86,100,8.0,KZ,1673052152
337,quatre cocos,-20.2078,57.7625,25.61,76,84,4.65,MU,1673052152
338,najran,17.4924,44.1277,13.36,68,1,0.61,SA,1673052152
339,san matias,-16.3667,-58.4,24.16,63,60,0.74,BO,1673052153
340,fuyang,32.9,115.8167,8.93,51,0,2.48,CN,1673052153
341,bilma,18.6853,12.9164,15.54,32,3,2.49,NE,1673052154
342,richards bay,-28.783,32.0377,19.04,88,100,6.67,ZA,1673052154
343,eenhana,-17.4667,16.3333,22.19,24,29,3.12,NA,1673052005
344,egvekinot,66.3167,-179.1667,-21.3,93,100,3.55,RU,1673052155
345,honningsvag,70.9821,25.9704,-0.14,69,75,8.23,NO,1673052155
346,waitati,-45.75,170.5667,15.45,95,98,2.52,NZ,1673052156
347,aklavik,68.2191,-135.0107,-18.0,85,100,1.54,CA,1673052156
348,volga,57.9516,38.3879,-29.11,100,33,2.04,RU,1673052157
349,kavaratti,10.5669,72.642,27.21,64,3,3.46,IN,1673052157
350,wanaka,-44.7,169.15,15.03,84,100,2.66,NZ,1673052158
351,mehamn,71.0357,27.8492,-2.03,64,20,4.63,NO,1673052158
352,fayaoue,-20.65,166.5333,27.9,80,100,8.72,NC,1673052159
353,owase,34.0667,136.2,9.21,55,100,0.1,JP,1673051900
354,monte patria,-30.6919,-70.9467,23.58,48,10,2.02,CL,1673052159
355,bairiki,1.3292,172.9752,30.0,70,20,5.14,KI,1673052160
356,grand gaube,-20.0064,57.6608,25.77,71,100,2.24,MU,1673052160
357,tacoronte,28.4769,-16.4102,12.77,78,0,3.58,ES,1673052161
358,balabac,7.9868,117.0645,27.25,80,100,6.75,PH,1673052161
359,riyadh,24.6877,46.7219,9.08,88,3,2.32,SA,1673051874
360,kuytun,54.3419,101.5036,-10.73,93,100,2.77,RU,1673052162
361,tadine,-21.55,167.8833,28.98,73,100,4.91,NC,1673052162
362,pangnirtung,66.1451,-65.7125,-21.0,93,100,0.93,CA,1673052163
363,brae,60.3964,-1.353,6.15,80,100,5.09,GB,1673052163
364,killorglin,52.1,-9.7833,5.82,83,100,3.08,IE,1673052164
365,nargana,9.4428,-78.5906,25.98,83,2,5.25,PA,1673052164
366,nioro,13.35,-15.75,22.9,19,9,3.04,GM,1673052165
367,kearney,40.6995,-99.0815,0.31,90,75,5.14,US,1673052165
368,qaqortoq,60.7167,-46.0333,-13.85,62,100,3.2,GL,1673052166
369,adamas,36.7333,24.4333,14.95,65,0,3.98,GR,1673052166
370,diamantina,-18.2494,-43.6003,17.88,93,100,0.92,BR,1673052167
371,bandundu,-3.3167,17.3667,22.47,94,90,1.29,CD,1673052167
372,royan,45.6285,-1.0281,5.99,88,7,5.84,FR,1673052167
373,kloulklubed,7.0419,134.2556,23.28,78,88,7.86,PW,1673052168
374,hobyo,5.3505,48.5268,24.77,78,77,7.02,SO,1673052168
375,lata,40.1629,-8.3327,11.71,86,96,2.32,PT,1673052169
376,alice springs,-23.7,133.8833,21.75,60,100,0.51,AU,1673052010
377,damghan,36.1683,54.348,1.7,78,98,0.46,IR,1673052170
378,atikokan,48.7555,-91.6216,-15.27,100,74,1.45,CA,1673052170
379,ponta delgada,37.7333,-25.6667,15.4,94,40,0.0,PT,1673052170
380,roald,62.5833,6.1333,6.08,81,75,8.23,NO,1673052171
381,bilibino,68.0546,166.4372,-27.59,94,100,0.51,RU,1673052171
382,luorong,24.4058,109.6086,12.6,61,0,1.93,CN,1673052172
383,north platte,41.1239,-100.7654,-1.6,79,0,4.92,US,1673052172
384,sao geraldo do araguaia,-6.4006,-48.555,22.77,95,96,0.24,BR,1673052174
385,taonan,45.3333,122.7833,-14.07,64,8,1.46,CN,1673052174
386,san andres,12.5847,-81.7006,27.01,74,40,4.63,CO,1673052174
387,abnub,27.2696,31.1511,9.12,61,0,2.27,EG,1673052175
388,fort nelson,58.8053,-122.7002,-16.14,91,75,0.0,CA,1673052175
389,canon city,38.441,-105.2424,7.09,34,0,3.6,US,1673052176
390,calvinia,-31.4707,19.776,16.35,50,0,6.81,ZA,1673052176
391,gayeri,12.6497,0.4931,22.08,24,16,3.87,BF,1673052177
392,taunggyi,20.7833,97.0333,11.21,76,0,1.28,MM,1673052177
393,ambah,26.7075,78.2261,4.04,44,0,2.47,IN,1673052177
394,key west,24.5557,-81.7826,24.0,50,0,5.14,US,1673052178
395,bien hoa,10.95,106.8167,23.99,74,100,3.93,VN,1673051907
396,nago,26.5881,127.9761,17.47,57,0,6.69,JP,1673051876
397,marsh harbour,26.5412,-77.0636,22.96,73,6,6.43,BS,1673052179
398,inirida,3.8653,-67.9239,23.59,96,100,0.55,CO,1673052179
399,soure,-0.7167,-48.5233,25.84,82,57,3.98,BR,1673052180
400,barcelos,41.5388,-8.6151,14.08,88,100,6.39,PT,1673052180
401,vanimo,-2.6741,141.3028,27.4,82,100,1.35,PG,1673052181
402,luanshya,-13.1367,28.4166,16.94,98,100,1.22,ZM,1673052181
403,callaguip,18.0714,120.4867,25.01,73,20,1.54,PH,1673052182
404,neiafu,-18.65,-173.9833,30.38,84,75,4.12,TO,1673052182
405,muros,42.7762,-9.0603,13.94,89,100,13.02,ES,1673052182
406,saurimo,-9.6608,20.3916,18.43,97,100,1.5,AO,1673052183
407,marienburg,54.0359,19.0266,3.65,100,100,3.62,PL,1673052183
408,portland,45.5234,-122.6762,11.79,71,100,6.69,US,1673052139
409,hualmay,-11.0964,-77.6139,21.17,75,98,3.28,PE,1673052184
410,camacha,33.0833,-16.3333,14.68,82,20,2.06,PT,1673052184
411,vila franca do campo,37.7167,-25.4333,15.23,93,100,2.74,PT,1673052185
412,inhambane,-23.865,35.3833,23.8,93,100,2.76,MZ,1673052185
413,ulladulla,-35.35,150.4667,19.2,65,78,5.15,AU,1673052186
414,bingol,38.8847,40.4939,1.73,98,100,1.23,TR,1673052186
415,nizhneangarsk,55.7833,109.55,-13.77,95,100,1.66,RU,1673052187
416,kijang,35.2442,129.2139,4.85,58,6,4.3,KR,1673051991
417,funadhoo,6.15,73.2667,26.63,73,0,2.33,MV,1673052187
418,sol-iletsk,51.1631,54.9918,-11.42,93,100,4.96,RU,1673052188
419,salta,-24.7859,-65.4117,27.33,51,75,2.57,AR,1673052188
420,codrington,-38.2667,141.9667,28.35,27,0,1.33,AU,1673052189
421,yulara,-25.2406,130.9889,26.71,26,100,5.91,AU,1673052189
422,kilrush,52.6397,-9.4833,7.86,81,100,4.57,IE,1673052190
423,chiredzi,-21.05,31.6667,18.94,96,100,4.12,ZW,1673052190
424,shingu,33.7333,135.9833,8.24,65,100,1.24,JP,1673052033
425,flin flon,54.7682,-101.865,-14.09,85,100,4.12,CA,1673052191
426,tateyama,34.9833,139.8667,8.94,72,91,3.36,JP,1673052191
427,grand baie,-20.0182,57.5802,25.81,71,100,2.24,MU,1673052192
428,atar,20.5169,-13.0499,18.18,20,95,4.24,MR,1673052192
429,sovetskiy,61.3614,63.5842,-25.64,98,94,2.95,RU,1673052193
430,ulagan,50.6321,87.9563,-9.05,95,100,1.01,RU,1673052193
431,cabo san lucas,22.8909,-109.9124,22.88,69,0,0.74,MX,1673052194
432,union city,37.5958,-122.0192,15.88,69,75,2.68,US,1673052194
433,husavik,66.0449,-17.3389,-3.19,88,100,0.53,IS,1673052195
434,poronaysk,49.2167,143.1167,-16.23,88,16,2.22,RU,1673052104
435,sept-iles,50.2001,-66.3821,-9.0,87,100,4.63,CA,1673052195
436,half moon bay,37.4636,-122.4286,15.95,74,0,6.17,US,1673052196
437,araouane,18.9048,-3.5265,18.66,18,99,5.18,ML,1673052196
438,safranbolu,41.2508,32.6942,4.26,95,93,1.23,TR,1673052197
439,genhe,50.7833,121.5167,-27.42,99,57,1.18,CN,1673052197
440,rawatbhata,24.9333,75.5833,9.48,30,0,1.77,IN,1673052198
441,mardin,37.3131,40.7436,3.42,85,100,1.96,TR,1673052198
442,buraydah,26.326,43.975,7.25,56,0,2.63,SA,1673052199
443,westport,41.1415,-73.3579,6.83,89,100,0.45,US,1673052199
444,the pas,53.8251,-101.2541,-15.99,85,0,4.12,CA,1673052200
445,farafangana,-22.8167,47.8333,22.94,93,18,1.81,MG,1673052200
446,ancud,-41.8697,-73.8203,14.24,95,100,2.22,CL,1673052201
447,voorschoten,52.1167,4.4333,11.14,91,100,6.69,NL,1673052201
448,verkhnyaya tura,58.3594,59.8175,-23.0,97,100,6.0,RU,1673052202
449,baft,29.234,56.6057,2.98,91,84,1.51,IR,1673052202
450,san jose,37.3394,-121.895,16.08,64,100,3.6,US,1673052203
451,yaan,7.3833,8.5667,24.51,27,17,2.33,NG,1673052203
452,rach gia,10.0167,105.0833,22.41,73,100,8.05,VN,1673052204
453,thinadhoo,0.5333,72.9333,26.9,78,18,5.1,MV,1673052204
454,carahue,-38.7,-73.1667,13.29,97,7,1.31,CL,1673052204
455,ostrow mazowiecka,52.8024,21.8951,-0.77,92,100,3.73,PL,1673052205
456,vanavara,60.34,102.2797,-23.44,100,100,0.55,RU,1673052205
457,puerto colombia,10.9878,-74.9547,26.05,87,0,7.78,CO,1673052206
458,moss vale,-34.55,150.3833,15.74,75,90,3.79,AU,1673051992
459,turukhansk,65.8167,87.9833,-45.48,99,57,1.02,RU,1673052206
460,aksu,41.1231,80.2644,-5.72,52,3,0.54,CN,1673052207
461,kalemie,-5.9475,29.1947,20.06,87,95,2.05,CD,1673052207
462,labuan,5.2767,115.2417,27.2,88,20,0.51,MY,1673052036
463,ouallam,14.3188,2.0866,21.57,22,6,4.92,NE,1673052209
464,lorengau,-2.0226,147.2712,28.02,78,100,5.31,PG,1673052209
465,primorsk,46.7348,36.3443,-3.07,60,40,5.34,UA,1673052210
466,chepareria,1.3077,35.2039,15.3,59,17,2.46,KE,1673052210
467,baghdad,33.3406,44.4009,5.95,100,6,0.0,IQ,1673052211
468,waingapu,-9.6567,120.2641,29.63,64,67,6.89,ID,1673052211
469,beruwala,6.4788,79.9828,22.82,93,56,2.56,LK,1673052211
470,nouadhibou,20.931,-17.0347,18.99,52,0,7.2,MR,1673052212
471,kajaani,64.2273,27.7285,-24.97,92,100,0.51,FI,1673052212
472,amapa,1.0,-52.0,22.79,89,64,1.89,BR,1673052213
473,tuy hoa,13.0833,109.3,20.02,93,100,6.94,VN,1673051922
474,saiha,22.4833,92.9667,12.63,78,0,1.54,IN,1673052213
475,karpathos,35.507,27.2132,12.98,82,75,3.09,GR,1673052214
476,coihaique,-45.5752,-72.0662,17.34,63,0,1.54,CL,1673052214
477,asau,46.4333,26.4,-2.49,90,14,2.34,RO,1673052215
478,linqiong,30.4159,103.4609,6.9,79,0,0.47,CN,1673052215
479,batagay,67.6333,134.6333,-38.66,100,100,0.5,RU,1673052216
480,deputatskiy,69.3,139.9,-39.3,100,97,1.34,RU,1673052216
481,tommot,58.9564,126.2925,-21.79,99,98,0.2,RU,1673052217
482,buala,-8.145,159.5921,27.98,79,100,3.22,SB,1673052217
483,ilek,51.5271,53.3831,-18.07,83,100,4.38,RU,1673052218
484,beipiao,41.7919,120.7792,-6.7,54,0,1.11,CN,1673052218
485,xinyu,27.8043,114.9334,11.18,68,0,0.68,CN,1673052219
486,port hardy,50.6996,-127.4199,8.1,87,100,13.89,CA,1673052219
487,terrace,54.5163,-128.6035,0.95,100,100,1.03,CA,1673052219
488,newark,40.7357,-74.1724,7.75,71,75,5.66,US,1673052220
489,smithers,54.7804,-127.1743,-1.82,93,100,0.0,CA,1673052220
490,mwanza,-2.5167,32.9,20.03,94,20,2.57,TZ,1673052221
491,manzhouli,49.6,117.4333,-26.74,96,16,0.91,CN,1673052221
492,melfort,52.8667,-104.6177,-15.93,85,100,4.12,CA,1673052222
493,isiro,2.7739,27.616,17.79,56,8,1.61,CD,1673052222
494,ostrovskoye,57.8057,42.2433,-30.51,99,17,2.35,RU,1673052223
495,socorro,31.6546,-106.3033,19.56,19,20,3.6,US,1673052223
496,takaka,-40.85,172.8,19.75,94,100,2.16,NZ,1673052224
497,mantua,45.1667,10.7833,8.58,93,5,0.89,IT,1673052224
498,tessalit,20.1986,1.0114,17.98,24,100,4.36,ML,1673052224
499,tiarei,-17.5333,-149.3333,30.01,73,54,2.37,PF,1673052225
500,manta,-0.95,-80.7333,25.88,78,75,4.12,EC,1673052225
501,umm lajj,25.0213,37.2685,19.42,49,0,5.58,SA,1673052226
502,impfondo,1.6381,18.0667,23.79,56,64,0.38,CG,1673052226
503,kamenka,51.3223,42.7678,-18.63,84,6,5.85,RU,1673052227
504,asosa,10.0667,34.5333,16.34,45,100,2.32,ET,1673052227
505,kualakapuas,-3.0091,114.3876,28.36,71,91,1.53,ID,1673052228
506,trelew,-43.249,-65.3051,23.83,50,7,6.39,AR,1673052228
507,bandarbeyla,9.4942,50.8122,24.11,76,12,4.72,SO,1673052229
508,whitianga,-36.8333,175.7,21.9,86,100,3.48,NZ,1673052230
509,port lincoln,-34.7333,135.8667,28.1,39,0,3.53,AU,1673052230
510,copiapo,-27.3667,-70.3333,17.83,55,0,2.25,CL,1673052231
511,verkhoturye,58.8627,60.8054,-22.45,97,100,5.46,RU,1673052231
512,olga,43.7444,135.2892,-9.17,71,4,1.85,RU,1673052232
513,sibolga,1.7427,98.7792,24.65,88,100,0.61,ID,1673052232
514,hambantota,6.1241,81.1185,24.19,100,20,2.57,LK,1673052130
515,luan,46.3592,6.9759,3.36,79,98,1.96,CH,1673052233
516,korla,41.7597,86.1469,-5.69,51,55,1.53,CN,1673052233
517,balkhash,46.844,74.9804,-3.66,86,75,3.0,KZ,1673052234
518,norden,53.6,7.2,8.86,97,92,0.89,DE,1673052234
519,freetown,8.484,-13.2299,24.69,77,0,2.96,SL,1673052051
520,bonavista,48.6499,-53.1147,-3.04,67,12,2.16,CA,1673052236
521,itaituba,-4.2761,-55.9836,22.36,99,100,0.82,BR,1673052236
522,san-pedro,4.7485,-6.6363,25.47,85,65,2.86,CI,1673052236
523,killybegs,54.6333,-8.45,7.55,73,100,6.25,IE,1673052237
524,dingle,10.9995,122.6711,25.64,86,100,6.35,PH,1673052237
525,nome,64.5011,-165.4064,-8.96,100,100,2.57,US,1673052238
526,ndola,-12.9587,28.6366,16.42,98,100,1.23,ZM,1673052238
527,banda aceh,5.5577,95.3222,25.52,78,54,1.99,ID,1673052179
528,cap-aux-meules,47.3821,-61.8597,-0.97,80,75,3.6,CA,1673052239
529,gari,59.4307,62.3497,-21.48,98,100,5.48,RU,1673052239
530,loudon,35.7328,-84.3338,8.25,74,85,0.66,US,1673052240
531,banjar,-8.19,114.9675,28.0,75,27,2.7,ID,1673052240
532,pacific grove,36.6177,-121.9166,14.25,73,0,3.13,US,1673052241
533,ararat,39.8317,44.7049,0.19,60,100,1.33,AM,1673052241
534,macomer,40.262,8.7699,6.04,92,1,0.56,IT,1673052242
535,gat,31.61,34.7642,15.22,100,23,3.36,IL,1673052242
536,esmeraldas,-19.7625,-44.3139,20.58,95,100,1.08,BR,1673052243
537,antofagasta,-23.65,-70.4,20.6,77,11,2.59,CL,1673052244
538,dawlatabad,36.4141,64.9053,9.57,49,85,2.66,AF,1673052244
539,berlevag,70.8578,29.0864,-2.0,62,74,7.47,NO,1673052244
540,mogadishu,2.0371,45.3438,24.97,86,38,6.99,SO,1673052246
541,nenton,15.8,-91.75,18.32,65,5,2.62,GT,1673052246
542,ufimskiy,56.7084,58.0517,-14.74,94,96,5.16,RU,1673052247
543,dunnville,42.9001,-79.6163,2.47,93,99,3.13,CA,1673052247
544,kitob,39.0843,66.8332,9.6,51,48,2.54,UZ,1673052247
545,sembakung,3.8167,117.25,26.01,92,100,0.58,ID,1673052248
546,shelburne,44.0787,-80.2041,0.42,96,100,3.85,CA,1673052248
547,saint anthony,45.0205,-93.218,-12.22,88,0,1.54,US,1673052250
548,along,28.1667,94.7667,8.26,48,0,0.95,IN,1673052250
549,obo,5.3998,26.4869,20.7,37,14,3.18,CF,1673052250
550,west wendover,40.7391,-114.0733,6.56,57,0,5.66,US,1673052251
551,roma,43.2128,-75.4557,2.75,94,100,0.0,US,1673052251
552,nicoya,10.1483,-85.452,24.27,73,12,3.33,CR,1673052252
553,shimoda,34.6667,138.95,10.2,58,8,1.94,JP,1673052252
554,jurm,36.8648,70.8342,1.45,53,100,3.53,AF,1673052253
555,ati,13.2154,18.3353,17.09,25,28,4.87,TD,1673052253
556,clyde river,70.4692,-68.5914,-32.87,75,0,1.54,CA,1673052254
557,praia,14.9215,-23.5087,22.3,78,0,9.26,CV,1673052071
558,lompoc,34.6391,-120.4579,15.23,76,75,8.05,US,1673052254
559,tombouctou,20.0,-3.0,18.3,18,100,5.31,ML,1673052255
560,santa rosalia,27.3167,-112.2833,15.82,66,0,3.3,MX,1673052255
561,sorland,67.667,12.6934,-0.08,64,100,8.67,NO,1673052256
562,comodoro rivadavia,-45.8667,-67.5,28.92,23,0,4.63,AR,1673052256
563,kendal,54.3268,-2.7476,12.84,93,100,8.66,GB,1673052257
564,laguna,38.421,-121.4238,13.99,71,0,3.09,US,1673052257
565,tongren,27.7172,109.1853,9.41,78,0,0.83,CN,1673052258
566,kaeo,-35.1,173.7833,22.4,97,100,2.63,NZ,1673052258
567,hervey bay,-25.2986,152.8535,25.45,63,37,8.65,AU,1673052259
568,cacapava do sul,-30.5122,-53.4914,18.66,62,0,5.28,BR,1673052259
569,margate,51.3813,1.3862,11.6,85,100,3.13,GB,1673052260
570,sinnamary,5.3833,-52.95,24.4,91,100,4.82,GF,1673052260
571,yerofey pavlovich,53.9667,121.9667,-26.43,100,100,0.87,RU,1673052261
572,khasan,42.4308,130.6434,-4.49,70,100,1.71,RU,1673052261
573,tamana,32.9167,130.5667,8.27,50,6,6.58,JP,1673051971
574,valera,9.3178,-70.6036,21.68,94,49,1.62,VE,1673052262
575,tezu,27.9167,96.1667,14.17,39,0,1.76,IN,1673052262
576,tautira,-17.7333,-149.15,26.91,74,81,3.07,PF,1673052263
577,somerset east,-32.7217,25.588,9.29,92,0,1.01,ZA,1673052264
578,igrim,63.1906,64.4162,-23.73,96,100,3.32,RU,1673052264
579,maine-soroa,13.2114,12.0241,16.31,28,93,4.82,NE,1673052266
580,dhidhdhoo,6.8833,73.1,26.48,69,0,1.58,MV,1673052266
581,chapais,49.7834,-74.8492,-8.12,95,100,2.89,CA,1673052266
582,erenhot,43.6475,111.9767,-7.33,54,100,3.85,CN,1673052267
583,karmala,18.4167,75.2,19.33,65,1,3.78,IN,1673052267
584,san ignacio,17.1561,-89.0714,26.08,73,20,2.06,BZ,1673052268
585,basoko,1.2391,23.616,22.5,61,87,0.26,CD,1673052268
586,mitu,1.1983,-70.1733,22.22,98,100,0.94,CO,1673052269
587,zhicheng,30.2956,111.5047,11.35,46,0,0.33,CN,1673052269
588,byron bay,-28.65,153.6167,26.64,62,53,7.29,AU,1673052016
